기준일,연번,위탁병원명,종별,병상수,진료과수,광역시도명,시군구명,상세주소,전화번호,위도,경도
2025-01-01,1,강릉동인병원,종합병원,383,21,강원특별자치도,강릉시,강릉대로419번길 42,033-651-6167,37.77443425,128.9071792
2025-01-01,2,강릉연세요양병원,요양병원,99,3,강원특별자치도,강릉시,옥가로 70,033-645-1400,37.76240066,128.9007898
2025-01-01,3,박정빈외과의원,의원,4,5,강원특별자치도,강릉시,경강로 2109 (임당동) 문선빌딩 3층,033-648-0080,37.75567058,128.8971787
2025-01-01,4,우리들내과의원,의원,0,4,강원특별자치도,강릉시,"경강로 2079, 2~5층",033-610-1500,37.75395207,128.894491
2025-01-01,5,위드내과의원,의원,0,5,강원특별자치도,강릉시,솔올로 35 (교동) 2층,033-641-9222,37.76515987,128.8778624
2025-01-01,6,이명호내과의원,의원,0,2,강원특별자치도,강릉시,솔올로5번길 40 (교동) 엘림빌딩2층,033-645-7747,37.76384381,128.8755201
2025-01-01,7,세브란의원,의원,0,8,강원특별자치도,고성군,거진읍 거진시장길 11,033-682-7755,38.4475241,128.454801
2025-01-01,8,고성제일의원,의원,0,13,강원특별자치도,고성군,간성읍 간성로 24,033-681-7582,38.37914476,128.4724323
2025-01-01,9,동해동인병원,종합병원,379,13,강원특별자치도,동해시,하평로 26,033-530-0114,37.53059098,129.1071328
2025-01-01,10,누가이비인후과의원,의원,3,1,강원특별자치도,동해시,"한섬로 111-7, 3층",033-535-3600,37.52224279,129.1152676
2025-01-01,11,동해제일내과의원,의원,0,6,강원특별자치도,동해시,청운1길 48 2층,033-522-6638,37.48594034,129.108508
2025-01-01,12,신세계의원,의원,0,11,강원특별자치도,동해시,"청운1길 64, 301호(나안동)",033-533-3652,37.48591528,129.1102151
2025-01-01,13,삼척의료원,종합병원,150,13,강원특별자치도,삼척시,오십천로 418 (남양동),033-572-1141,37.44032411,129.1633417
2025-01-01,14,신준호의원,의원,0,4,강원특별자치도,삼척시,남양동 55-63,033-575-0018,37.44147693,129.1643088
2025-01-01,15,아산퍼스트마취통증의학과의원,의원,0,6,강원특별자치도,삼척시,"진주로 19, 3층",033-572-7588,37.44252778,129.1637375
2025-01-01,16,속초의료원,종합병원,172,18,강원특별자치도,속초시,영랑호반길 3,033-630-6000,38.21604384,128.5879122
2025-01-01,17,속초정요양병원,요양병원,129,3,강원특별자치도,속초시,동해대로 4084,033-637-0757,38.18994368,128.5877247
2025-01-01,18,닥터음가정의학과의원,의원,0,5,강원특별자치도,속초시,동해대로 4163 (조양동) 닥터음가정의학과의원,033-633-3773,38.19092222,128.5793876
2025-01-01,19,양구성심병원,병원,47,5,강원특별자치도,양구군,양구읍 중심로 160,033-480-8800,38.1047008,127.9912111
2025-01-01,20,한사랑내과의원,의원,0,7,강원특별자치도,양구군,양구읍 사명길 123 한사랑내과의원,033-482-3566,38.10780001,127.9883487
2025-01-01,21,상명내과의원,의원,0,2,강원특별자치도,양양군,양양읍 양양로 62-1 2층 상명내과의원,033-672-8712,38.0755124,128.622219
2025-01-01,22,양양정형외과,의원,0,4,강원특별자치도,양양군,양양읍 양양로 9-1,033-672-6722,38.07848621,128.6271911
2025-01-01,23,영월의료원,종합병원,202,18,강원특별자치도,영월군,영월읍 중앙1로 59,033-370-9101,37.1864944,128.465702
2025-01-01,24,삼성수의원,의원,0,2,강원특별자치도,영월군,영월읍 중앙1로 15,033-375-2000,37.18252091,128.4655761
2025-01-01,25,성윤업내과의원,의원,0,22,강원특별자치도,영월군,영월읍 중앙1로 32 성윤업내과의원,033-374-0871,37.18393423,128.4659452
2025-01-01,26,바른요양병원,요양병원,238,4,강원특별자치도,원주시,판부면 치악로 1139,033-762-0100,37.29315326,127.9908856
2025-01-01,27,연세메디하임병원,병원,199,3,강원특별자치도,원주시,원문로 1419 (연세메디하임),033-740-8800,37.32618805,127.8450942
2025-01-01,28,현대중앙병원,병원,39,5,강원특별자치도,원주시,상지대길 23,033-747-1199,37.36937278,127.9388856
2025-01-01,29,손경수내과의원,의원,0,3,강원특별자치도,원주시,"남원로 665 선일빌딩 1층일부,2,3,4층",033-763-8252,37.34206679,127.9540647
2025-01-01,30,원주연세의원,의원,0,11,강원특별자치도,원주시,"흥업면 남원로 57, 2층",033-766-7881,37.30142624,127.919278
2025-01-01,31,탑정형외과의원,의원,16,14,강원특별자치도,원주시,"봉화로 31, 시재메디타워(단계동)",1599-7501,37.34734383,127.9283384
2025-01-01,32,홍&권이비인후과의원,의원,5,1,강원특별자치도,원주시,"중앙로 105, 2~3층",033-735-7707,37.34946359,127.9506516
2025-01-01,33,원주세브란스기독병원,상급종합,866,29,강원특별자치도,원주시,일산로 20,033-741-0114,37.34911951,127.9467238
2025-01-01,34,인제고려병원,병원,42,10,강원특별자치도,인제군,인제읍 비봉로15번길 4,033-461-0088,38.06790944,128.1734395
2025-01-01,35,한림의원,의원,0,4,강원특별자치도,인제군,북면 원통로 218 한림의원,033-462-4261,38.12424751,128.2073229
2025-01-01,36,근로복지공단 정선병원,병원,178,3,강원특별자치도,정선군,정선읍 봉양1길 145,033-560-7100,37.38324315,128.6603115
2025-01-01,37,사북제일의원,의원,0,3,강원특별자치도,정선군,사북읍 사북5길 1 제일의원,033-592-3412,37.22733545,128.8198894
2025-01-01,38,정선연세외과의원,의원,0,8,강원특별자치도,정선군,정선읍 봉양6길 14,033-563-7778,37.3788884,128.6639656
2025-01-01,39,철원병원,병원,93,14,강원특별자치도,철원군,갈말읍 명성로 208,033-452-5011,38.15005158,127.3076245
2025-01-01,40,강남아이원안과의원,의원,0,1,강원특별자치도,철원군,동송읍 금학로 199 3층 강남아이원안과,033-455-7501,38.20656362,127.2189647
2025-01-01,41,동송제일정형외과의원,의원,0,5,강원특별자치도,철원군,"동송읍 금학로 215, 2층",033-458-1188,38.20782744,127.2179807
2025-01-01,42,강원대학교병원,종합병원,608,26,강원특별자치도,춘천시,백령로 156 (효자동),033-258-2000,37.87577759,127.7450092
2025-01-01,43,춘천시노인전문병원,요양병원,165,6,강원특별자치도,춘천시,"춘천시 동면 세실로 252,(동면)",033-240-7500,37.8801805,127.756362
2025-01-01,44,인성병원,병원,141,7,강원특별자치도,춘천시,금강로 39,033-253-3030,37.88125149,127.7269039
2025-01-01,45,강남내과의원,의원,0,1,강원특별자치도,춘천시,"춘천로 68, 3~4층",033-242-8885,37.87029054,127.7249892
2025-01-01,46,마디온정형외과의원,의원,24,5,강원특별자치도,춘천시,안마산로 107 (퇴계동) 마디온정형외과의원,033-249-8575,37.8545554,127.7275247
2025-01-01,47,안정효내과의원,의원,0,3,강원특별자치도,춘천시,"퇴계로 188, 썬타워3층(석사동)",033-262-9889,37.857141,127.7393682
2025-01-01,48,연세플러스비뇨기과의원,의원,6,1,강원특별자치도,춘천시,금강로 69(4층),033-243-6400,37.87913049,127.7292648
2025-01-01,49,오케이정형외과의원,의원,26,7,강원특별자치도,춘천시,"김유정로 1874 1,3,4,5,6층",033-263-5335,37.85361112,127.7362783
2025-01-01,50,하나큐치과의원,의원,0,1,강원특별자치도,춘천시,"후석로 355, 2층(후평동)",033-256-1928,37.8825052,127.7477827
2025-01-01,51,근로복지공단 태백병원,종합병원,395,15,강원특별자치도,태백시,보드미길 8,033-580-3114,37.1042532,129.0034721
2025-01-01,52,김병호내과의원,의원,0,3,강원특별자치도,태백시,황지로 176-1 (황지동) 김병호내과의원,033-552-6997,37.17412459,128.9906923
2025-01-01,53,태백밝은안과의원,의원,0,1,강원특별자치도,태백시,황지로 169(황지동),033-554-0071,37.17342789,128.9910323
2025-01-01,54,평창군보건의료원,의원,20,14,강원특별자치도,평창군,평창읍 종부로 61,033-332-4000,37.36049006,128.3888504
2025-01-01,55,홍천아산병원,종합병원,145,8,강원특별자치도,홍천군,홍천읍 산림공원1길 17,033-430-5151,37.69110202,127.895427
2025-01-01,56,서울드림의원,의원,0,2,강원특별자치도,홍천군,홍천읍 신장대로 47-1,033-433-3354,37.6903682,127.881538
2025-01-01,57,서울정형외과의원(홍천),의원,0,1,강원특별자치도,홍천군,홍천읍 신장대리 64-1,033-432-0129,37.68873167,127.8850101
2025-01-01,58,윤성일정형외과의원,의원,0,5,강원특별자치도,홍천군,"홍천읍 홍천로 316, 4~5층",033-439-9999,37.68826753,127.880328
2025-01-01,59,화천군보건의료원,의원,21,7,강원특별자치도,화천군,화천읍 강변로 111,033-442-4424,38.10734467,127.7091238
2025-01-01,60,화천내과의원,의원,0,5,강원특별자치도,화천군,화천읍 중앙로 19-1 화천내과의원,033-442-8001,38.10426577,127.7064905
2025-01-01,61,횡성대성병원,병원,120,5,강원특별자치도,횡성군,횡성읍 횡성로 275,033-343-0901,37.4784106,127.9799329
2025-01-01,62,이재형봄빛내과,의원,0,7,강원특별자치도,횡성군,"횡성읍 한우로306, 3층",033-343-3636,37.48736833,127.9866929
2025-01-01,63,횡성정형외과의원,의원,0,5,강원특별자치도,횡성군,횡성읍 태기로19번길 14 태기로19번길14,033-343-5337,37.49169355,127.9864887
2025-01-01,64,HJ매그놀리아국제병원,병원,167,11,경기도,가평군,설악면 미사리로 267-177,031-589-4300,37.69113661,127.5213784
2025-01-01,65,가평성모의원,의원,0,12,경기도,가평군,가평읍 가화로 75,031-582-1833,37.82647377,127.5149306
2025-01-01,66,새희망마취통증의학과의원,의원,0,6,경기도,가평군,가평읍 가화로 113,031-581-7200,37.82973807,127.5133644
2025-01-01,67,인제대학교 일산백병원,종합병원,642,27,경기도,고양시,일산서구 주화로 170,031-910-7114,37.67426949,126.7503856
2025-01-01,68,서울척탑병원,병원,72,6,경기도,고양시,"권율대로 685, SBI타워 6~8층(원흥동)",031-813-9988,37.65119498,126.8740444
2025-01-01,69,연세송내과,의원,0,1,경기도,파주시,후곡로 3 현인메트로 2층,031-8070-1198,37.757252,126.774050
2025-01-01,70,이움내과의원,의원,0,6,경기도,고양시,"덕양구 백양로 51, 네이버타운 301호",031-979-0875,37.63030978,126.8332457
2025-01-01,71,일산미래내과의원,의원,0,5,경기도,고양시,"일산서구 일현로 97-11, 1층",1544-7517,37.69521421,126.7620084
2025-01-01,72,고양연세참비뇨의학과의원,의원,0,1,경기도,고양시,"일산동구 강석로 113, 2층",031-927-9276,37.65093072,126.7794241
2025-01-01,73,탑내과의원,의원,0,5,경기도,과천시,"별양로 12 (원문동, 래미안 슈르) 래미안슈르상가 B동 3층",02-502-8833,37.42304705,126.9935177
2025-01-01,74,광명성애병원,종합병원,268,24,경기도,광명시,디지털로 36 (철산동),02-2680-7114,37.47366531,126.8713285
2025-01-01,75,로하스광명요양병원,요양병원,217,12,경기도,광명시,"디지털로 25, 3~5층 창덕빌딩",02-2619-0075,37.47408707,126.8702029
2025-01-01,76,광명새움병원,병원,67,5,경기도,광명시,오리로 518 (소하동) 대교빌딩 4층 광명새움병원,1661-6888,37.44818601,126.882018
2025-01-01,77,삼성우리내과의원,의원,0,3,경기도,광명시,철산로 32 (철산동) 4층 삼성우리내과의원,02-2613-7588,37.47624571,126.8697973
2025-01-01,78,오이비인후과의원,의원,0,3,경기도,광명시,"오리로 374, 3층 인선빌딩",02-899-1119,37.43578356,126.8796938
2025-01-01,79,더플러스병원,병원,68,8,경기도,광주시,경안로 40,031-763-7582,37.4095171,127.2562071
2025-01-01,80,광주시원한비뇨의학과의원,의원,1,1,경기도,광주시,"광주대로 31, 지에이타워 8층 ",031-8027-9275,37.40936201,127.2602188
2025-01-01,81,광주제일내과의원,의원,0,9,경기도,광주시,중앙로 101,031-763-2601,37.4088191,127.2584167
2025-01-01,82,서울더센트럴치과,의원,0,11,경기도,광주시,"초월읍 경충대로 1087 2,3층",031-763-2080,37.37410317,127.2973388
2025-01-01,83,퇴촌중앙의원,의원,0,8,경기도,광주시,퇴촌면 광동로 73-8,031-766-6211,37.47082376,127.3108506
2025-01-01,84,굿병원,병원,93,8,경기도,구리시,검배로 46,031-564-4114,37.59728808,127.1439323
2025-01-01,85,구리백내과의원,의원,0,16,경기도,구리시,"검배로 42, 2층",031-557-6311,37.59749309,127.1436242
2025-01-01,86,서울비뇨기과의원(구리점),의원,1,1,경기도,구리시,건원대로3 흥화브라운오피스텔 4층,031-523-9000,37.60141807,127.1406461
2025-01-01,87,원광대학교 산본병원,종합병원,238,20,경기도,군포시,산본로 321,031-390-2300,37.35941187,126.9336016
2025-01-01,88,김성진내과의원,의원,0,1,경기도,군포시,고산로 693 (산본동) 하나로빌딩 3층 김성진내과,031-347-4800,37.37197668,126.9350385
2025-01-01,89,나래비뇨기과의원,의원,1,2,경기도,군포시,"금산로112, 2층",031-392-7582,37.37179895,126.9363168
2025-01-01,90,서울탑재활의학과의원,의원,0,4,경기도,군포시,"산본로 323번길 16-6, 신명타워 5층 5001호(산본동)",031-393-1000,37.35925663,126.9323733
2025-01-01,91,김포우리병원,종합병원,352,24,경기도,김포시,감암로 11,031-999-1231,37.63299862,126.7105623
2025-01-01,92,김포삼성굿비뇨기과의원,의원,3,1,경기도,김포시,"김포대로 847, 4층",031-8049-7675,37.61969944,126.7196498
2025-01-01,93,박원종내과의원,의원,0,6,경기도,김포시,통진읍 김포대로2230번길 21-3 박원종내과의원,031-996-3722,37.69070262,126.5986328
2025-01-01,94,손발척척정형외과의원,의원,14,2,경기도,김포시,"양도로 23, 오성프라자 6차 5층",031-986-2980,37.60673768,126.7250022
2025-01-01,95,퍼스트내과의원,의원,0,1,경기도,김포시,"김포한강4로 525, 감두리빌딩 4층",031-981-6051,37.64571557,126.6254262
2025-01-01,96,남양주백병원,병원,109,8,경기도,남양주시,진접읍 해밀예당1로 30-25,031-572-3111,37.71128093,127.1876287
2025-01-01,97,원병원,병원,151,11,경기도,남양주시,화도읍 경춘로 1943-16,031-590-3114,37.65192652,127.3043787
2025-01-01,98,다모아치과의원,의원,0,1,경기도,남양주시,"늘을2로 14번길 5, 샤르망메디칼프라자 401호",031-593-2879,37.65411833,127.2445648
2025-01-01,99,다산이엠365의원,의원,0,15,경기도,남양주시,"다산중앙로 82번길 78, 2~3층",031-566-0911,37.61982643,127.1632488
2025-01-01,100,안종훈내과의원,의원,0,4,경기도,남양주시,"화도읍 마석중앙로 78, 메디닥터 빌딩3,4층",031-593-7390,37.65190442,127.3082887
2025-01-01,101,청담비뇨기과의원,의원,0,5,경기도,남양주시,늘을2로 20 (호평동) 4층 청담비뇨기과,031-592-3698,37.65448476,127.2440965
2025-01-01,102,경기도립노인전문 남양주병원,요양병원,244,6,경기도,남양주시,수동면 외방로 172번길 50,031-590-5000,37.73840141,127.3093016
2025-01-01,103,이룸이비인후과의원,의원,0,11,경기도,남양주시,"진접읍 해밀예당1로 30, 센타프라자 6층",031-571-5075,37.71177743,127.1864551
2025-01-01,104,경기도립노인전문동두천병원,요양병원,197,4,경기도,동두천시,탑신로 536,031-860-4114,37.90083089,127.1360221
2025-01-01,105,동두천중앙성모병원,병원,172,15,경기도,동두천시,동광로 53,031-863-0550,37.90886892,127.0540161
2025-01-01,106,김이비인후과,의원,0,3,경기도,동두천시,"지행로 60, 6층",031-867-7575,37.89207278,127.0538215
2025-01-01,107,조은비뇨기과의원,의원,0,1,경기도,동두천시,"지행로 59, 401호",031-864-1711,37.89269413,127.0537794
2025-01-01,108,뉴대성병원,종합병원,252,13,경기도,부천시,부천로 91,032-610-1111,37.49255252,126.7841859
2025-01-01,109,메디홀스요양병원,요양병원,348,6,경기도,부천시,소사구 경인로 110번길 14,032-667-0100,37.48351274,126.7674172
2025-01-01,110,가톨릭정형외과의원,의원,12,12,경기도,부천시,"경인로 522, 4층(괴안동, 위드플러스타워)",032-223-8275,37.48456808,126.8133403
2025-01-01,111,대성안과의원,의원,0,1,경기도,부천시,부흥로 377,032-661-3100,37.49191399,126.7834273
2025-01-01,112,명비뇨기과의원,의원,0,2,경기도,부천시,"원미구 길주로 243, 302호 제일프라자",032-327-1351,37.50443021,126.7695733
2025-01-01,113,부천메디홀스의원,의원,0,3,경기도,부천시,소사구 송내동 385-5,032-656-4114,37.48324295,126.7674669
2025-01-01,114,성남중앙병원,종합병원,200,23,경기도,성남시,중원구 산성대로476번길 12,031-743-3000,37.45294155,127.1620002
2025-01-01,115,분당센트럴요양병원,요양병원,164,9,경기도,성남시,"분당구 양현로94번길 17, 지1층~5층",031-706-9090,37.39127335,127.1260392
2025-01-01,116,성모윌병원,병원,160,11,경기도,성남시,수정구 성남대로 1171 (수진동) 성모윌병원,1833-7512,37.43445138,127.128284
2025-01-01,117,(의)열린의료재단 분당열린의원,의원,0,1,경기도,성남시,"분당구 분당로53번길 22, 4층",031-708-9393,37.38426655,127.1228682
2025-01-01,118,리앤홍이비인후과,의원,7,4,경기도,성남시,"분당구 성남대로331번길7, 401호 402-1일부호(정자동,정자스타빌딩)",0507-1381-1093,37.36546111,127.1072026
2025-01-01,119,분당안과의원,의원,0,1,경기도,성남시,"분당구 성남대로 912, 분당BYC빌딩 407",031-703-6464,37.41096755,127.1292562
2025-01-01,120,분당연세비뇨의학과의원,의원,0,2,경기도,성남시,분당구 황새울로335번길 5 (서현동) 앤타운빌딩 803호,031-2706-8292,37.38605101,127.1216956
2025-01-01,121,서울엘리트치과의원,의원,0,9,경기도,성남시,분당구 돌마로 85 702호,031-701-7528,37.35039011,127.1113426
2025-01-01,122,수서울내과의원,의원,0,5,경기도,성남시,중원구 산성대로 380(5층),031-748-1112,37.44572133,127.1578199
2025-01-01,123,경기도립의료원 수원병원,종합병원,129,16,경기도,수원시,장안구 수성로245번길 69,031-888-0114,37.29185694,126.9963822
2025-01-01,124,동수원병원,종합병원,377,23,경기도,수원시,팔달구 중부대로 165 (우만동),031-210-0114,37.27816955,127.0343618
2025-01-01,125,다인병원,병원,91,16,경기도,수원시,장안구 창룡대로 159 (연무동) 다인병원,031-8014-1300,37.29191828,127.0275208
2025-01-01,126,연세내과,의원,2,3,경기도,수원시,"영통구 봉영로 1623(영통동, 드림피아 309호)",031-203-1245,37.25593714,127.074732
2025-01-01,127,오케이365정형외과의원,의원,0,6,경기도,수원시,"팔달구 매산로 11, 3층",031-548-1213,37.267446,127.0027265
2025-01-01,128,코코이비인후과의원,의원,0,5,경기도,수원시,"영통구 매영로 84 (매탄동, 한국아파트) 한국2차아파트 상가동 207호 코코이비인후과",031-212-7572,37.26819506,127.0500482
2025-01-01,129,한마음외과의원,의원,24,2,경기도,수원시,권선구 경수대로 321,031-235-7766,37.25555156,127.0211001
2025-01-01,130,센트럴병원,종합병원,249,18,경기도,시흥시,공단1대로 237,031-8041-3000,37.3368467,126.7279827
2025-01-01,131,(의)자운의료재단강남요양병원,요양병원,75,8,경기도,시흥시,"수인로3325번길 10 (신천동, 우명프라자) 우명프라자3층",031-311-0700,37.43826998,126.7882051
2025-01-01,132,센트럴요양병원,요양병원,150,5,경기도,시흥시,공단1대로 237 B동 3~8층,031-8041-3799,37.3368467,126.7279827
2025-01-01,133,김철수내과의원,의원,0,14,경기도,시흥시,"능곡번영길 30, 3층",031-503-0872,37.37021143,126.8066181
2025-01-01,134,드림내과의원,의원,0,3,경기도,시흥시,"역전로 292, 2층(정왕동)",031-431-7788,37.35210202,126.7398253
2025-01-01,135,한도병원,종합병원,254,19,경기도,안산시, 단원구 선부광장로 103,031-8040-1114,37.33405296,126.8076185
2025-01-01,136,(의)열린의료재단 안산열린의원,의원,0,1,경기도,안산시,"상록구 용신로 388, 5층",031-415-0072,37.30137727,126.8651071
2025-01-01,137,더베스트내과의원,의원,0,3,경기도,안산시,단원구 광덕대로 154 (고잔동) 로데오타운 A동 2층 더베스트내과,031-487-1119,37.31017091,126.8307376
2025-01-01,138,우리안신경외과의원,의원,0,7,경기도,안산시,"상록구 용신로 364(본오동, 203~204, 301~306호)",031-484-7777,37.3014768,126.8623309
2025-01-01,139,윤이비인후과의원,의원,0,1,경기도,안산시,단원구 예술대학로 9,031-401-4172,37.31782384,126.8365197
2025-01-01,140,경기도의료원 안성병원,종합병원,249,15,경기도,안성시,고수2로 17 (당왕동),031-8046-5000,37.01439815,127.2578096
2025-01-01,141,안성동인병원,병원,41,10,경기도,안성시,인지1길 9,031-677-0300,37.00524422,127.2667973
2025-01-01,142,안성제일정형외과의원,의원,0,6,경기도,안성시,중앙로 372번길 37-15 1층 안성제일정형외과의원,031-673-2119,37.00620892,127.2683387
2025-01-01,143,더편한장내과의원,의원,0,1,경기도,안성시,"아양1로 61, 폴리프라자1 3층",031-671-7575,37.0076222,127.2593585
2025-01-01,144,안양샘병원,종합병원,354,30,경기도,안양시,만안구 삼덕로 9,031-467-9114,37.39288814,126.9248162
2025-01-01,145,김형근예병원,병원,56,7,경기도,안양시,"동안구 관악대로 458 (관양동, 서진빌딩)",031-421-7575,37.40373519,126.973343
2025-01-01,146,권태우정형외과의원,의원,0,1,경기도,안양시,동안구 시민대로 187,031-388-2198,37.39178722,126.9517662
2025-01-01,147,안양더샘찬정형외과의원,의원,0,4,경기도,안양시,"만안구 병목안로2, PROJECT 240 TOWER 3층(안양동)",031-465-1358,37.3999437,126.9198928
2025-01-01,148,평촌연세365내과의원,의원,0,4,경기도,안양시,"동안구 평촌대로 217번길 27, 3~4층",031-385-3650,37.39033042,126.9541354
2025-01-01,149,평촌범계연세바로걷는의원,의원,6,4,경기도,안양시,"동안구 시민대로 206, 4,5층",031-387-7585,37.39172381,126.953766
2025-01-01,150,양주예쓰병원,병원,132,13,경기도,양주시,회정로 103,031-825-5000,37.83771986,127.0645583
2025-01-01,151,21세기내과의원,의원,0,3,경기도,양주시,고읍남로 6,031-847-8600,37.79564791,127.0801217
2025-01-01,152,두리이비인후과의원(양주),의원,0,5,경기도,양주시,옥정로 196 (옥정동) 파스텔시티 6층,031-868-8766,37.81897817,127.0921449
2025-01-01,153,아산재건정형외과,의원,19,3,경기도,양주시,"고읍남로 18, 3~7층",1899-7584,37.79496681,127.0794375
2025-01-01,154,양평병원,병원,115,8,경기도,양평군,양평읍 중앙로 129,031-770-5000,37.49394555,127.5034785
2025-01-01,155,동서신경외과의원,의원,0,9,경기도,양평군,양평읍 시민로36,031-773-6806,37.49006537,127.4957692
2025-01-01,156,새벽의원,의원,0,2,경기도,양평군,양평읍 시민로 6-1 보원 메디컬 3층 새벽 피부비뇨기과,031-774-6247,37.48898067,127.492859
2025-01-01,157,푸른정형외과의원,의원,0,8,경기도,양평군,양평읍 시민로 29,031-774-7582,37.49034938,127.4947495
2025-01-01,158,세종여주병원,병원,126,12,경기도,여주시,"청심로 47 (하동, 여주고려병원)",031-880-7700,37.30132807,127.6267045
2025-01-01,159,강비뇨기과의원(연천),의원,0,2,경기도,연천군,전곡읍 전곡로 166 강비뇨기과의원,031-835-0108,38.02683841,127.0679826
2025-01-01,160,연천군보건의료원,의원,52,9,경기도,연천군,전곡읍 은대성로 95,031-839-4001,38.0235301,127.0609629
2025-01-01,161,조은오산병원,종합병원,219,14,경기도,오산시,오산로 307 조은오산병원,1544-5355,37.15420566,127.0682033
2025-01-01,162,(의)영문의료재단 다보스병원,종합병원,235,21,경기도,용인시,처인구 백옥대로1082번길 18,031-8021-2114,37.23154055,127.2114013
2025-01-01,163,용인강남병원,종합병원,299,16,경기도,용인시,기흥구 중부대로 411 (신갈동),031-300-0114,37.27367205,127.1114319
2025-01-01,164,더원요양병원,요양병원,295,6,경기도,용인시,기흥구 용구대로 2252 더원요양병원,031-282-8123,37.28753849,127.1088444
2025-01-01,165,맨스톤비뇨의학과의원,의원,1,1,경기도,용인시,기흥구 죽전로 2 4층,031-265-5375,37.32021294,127.1089671
2025-01-01,166,맨스톤비뇨의학과의원,의원,1,1,경기도,용인시,기흥구 죽전로 2 4층,031-265-5375,37.32021294,127.1089671
2025-01-01,167,비젼내과의원,의원,0,2,경기도,용인시,기흥구 보정로 115 (보정동) 우영프라자 4층,031-896-3000,37.31986349,127.1152444
2025-01-01,168,서울플란트치과의원,의원,0,8,경기도,용인시,"기흥구 용구대로 2384, 2층",031-283-2581,37.29927375,127.108052
2025-01-01,169,수지엘내과의원,의원,0,13,경기도,용인시,"수지구  신봉1로 73, 3층",031-272-6699,37.32292132,127.076677
2025-01-01,170,아가페의료재단 시티병원,병원,176,14,경기도,의왕시,오전천로 29,031-340-0114,37.35027753,126.9767906
2025-01-01,171,한국한센복지협회부설의원,의원,29,3,경기도,의왕시,원골로 59 (오전동),031-452-7093,37.36290946,126.9714603
2025-01-01,172,경기도립의료원 의정부병원,종합병원,214,16,경기도,의정부시,흥선로 142,031-828-5000,37.74108979,127.0425483
2025-01-01,173,(의)희경의료재단 성베드로병원,병원,124,7,경기도,의정부시,평화로 622 (의정부동) 성베드로병원,1544-1131,37.74752285,127.0458583
2025-01-01,174,서울아산이비인후과의원,의원,2,1,경기도,의정부시,평화로 540 퍼시픽타워 11층,0507-1405-3710,37.74007792,127.0477804
2025-01-01,175,윤석주내과의원,의원,0,1,경기도,의정부시,"호국로 1336 (의정부동) 5,6,7 층 윤석주내과",031-843-3000,37.74406124,127.0523589
2025-01-01,176,서울신세계안과의원,의원,4,1,경기도,의정부시,태평로 73번길 55,1599-7397,37.73886661,127.0484086
2025-01-01,177,요한비뇨기과의원,의원,1,5,경기도,의정부시,"시민로 39, 3층",031-855-8822,37.73854176,127.0394496
2025-01-01,178,경기도의료원 이천병원,종합병원,128,12,경기도,이천시,"경충대로 2742 (관고동, 경기도립의료원이천병원)",031-639-4800,37.2828192,127.4332429
2025-01-01,179,서울삼성내과의원,의원,0,2,경기도,이천시,"마장면 오천로 49, 4층",031-8011-3875,37.25283651,127.3533964
2025-01-01,180,연세든든내과,의원,2,4,경기도,이천시,"영창로 202, 가동 5층(창전동)",031-694-0775,37.28077549,127.4450652
2025-01-01,181,경기도의료원 파주병원,종합병원,200,14,경기도,파주시,중앙로 207 (금촌동),031-940-9100,37.75488198,126.779638
2025-01-01,182,무척조은병원,병원,109,14,경기도,파주시,문산읍 방촌로 1675-20,031-954-1400,37.86396951,126.7809571
2025-01-01,183,금촌비뇨기과의원,의원,0,7,경기도,파주시," 중앙로 308, 금촌타워 상가아파트 304~306호",031-941-3588,37.7634005,126.7756848
2025-01-01,184,두리이비인후과의원(파주),의원,3,1,경기도,파주시," 미래로 371, 1001-1002호(동패동)",031-946-2115,37.71108155,126.7458556
2025-01-01,185,센트럴제일안과의원,의원,0,6,경기도,파주시,"경의로 1092, 401호, 406호~408호, 501호",031-978-8275,37.71489907,126.7600934
2025-01-01,186,연세탄탄정형외과의원,의원,0,5,경기도,파주시,"책향기로 836, 아름터타워 3층",031-939-1004,37.72927243,126.7637564
2025-01-01,187,평택성모병원,종합병원,352,17,경기도,평택시,평택로 284,031-1800-8800,37.00840726,127.0743431
2025-01-01,188,성심중앙병원,병원,81,7,경기도,평택시,안현로서6길 16 (성심중앙병원),031-681-1119,36.98406061,126.927669
2025-01-01,189,건강드림내과의원,의원,16,6,경기도,평택시,"지산로 64, 1~5층",031-666-8275,37.07968015,127.0620631
2025-01-01,190,로뎀나무내과의원,의원,0,5,경기도,평택시,중앙로 82-1 (합정동) 2층,031-654-1905,36.99372993,127.0921472
2025-01-01,191,하나의원,의원,0,3,경기도,평택시,송탄로 410(지산동),031-663-9798,37.08013521,127.0580761
2025-01-01,192,평택김안과의원,의원,3,1,경기도,평택시,"중앙로 270, 2~5층",031-652-5161,36.98989293,127.1126829
2025-01-01,193,경기도립의료원 포천병원,종합병원,142,15,경기도,포천시,포천로 1648,031-539-9114,37.90309115,127.1983435
2025-01-01,194,한성내과의원,의원,0,2,경기도,포천시,소흘읍 솔모루로 114,031-532-2375,37.83100888,127.1492521
2025-01-01,195,햇살병원,병원,62,5,경기도,하남시,신평로 51 (신장동),031-791-7330,37.53847653,127.2046215
2025-01-01,196,감일성모내과,의원,0,4,경기도,하남시,"신우실로 61, 푸리마타워 4층 ",02-6215-7575,37.50994101,127.1617151
2025-01-01,197,박지영내과의원,의원,0,7,경기도,하남시,아리수로 570,031-793-1475,37.56681749,127.1904087
2025-01-01,198,서울본정형외과의원,의원,0,6,경기도,하남시,"신장로 152, 2층,5층",031-791-8825,37.53952348,127.2022002
2025-01-01,199,화성중앙병원,종합병원,151,9,경기도,화성시,향남읍 발안로 5,031-352-8114,37.13134695,126.9107749
2025-01-01,200,동탄시티병원,병원,90,8,경기도,화성시,동탄지성로 113 (반송동) 동탄시티병원,031-8015-3333,37.20848036,127.0626255
2025-01-01,201,동탄서울내과의원,의원,0,7,경기도,화성시,동탄순환대로 127-5 (산척동) 5층 동탄서울내과,031-831-8363,37.16608531,127.1072864
2025-01-01,202,봉담센트럴내과의원,의원,0,4,경기도,화성시,"봉담읍 상리2길 55, 504~506호",031-307-1000,37.22507215,126.9469535
2025-01-01,203,삼성정형외과의원,의원,29,8,경기도,화성시,"봉담읍 삼천병마로 1316,(봉담읍)",031-298-7119,37.22225065,126.9519168
2025-01-01,204,에스1+내과의원,의원,2,4,경기도,화성시,"꽃내음1길 19-6, 5층",031-8078-8078,37.28422113,126.8181251
2025-01-01,205,대우병원,종합병원,225,15,경상남도,거제시,두모길 16,055-680-8114,34.87195161,128.7221212
2025-01-01,206,맑은샘병원,종합병원,171,21,경상남도,거제시,연초면 거제대로 4477,055-736-1004,34.89772442,128.6436559
2025-01-01,207,정안과의원,의원,0,1,경상남도,거제시,거제중앙로 25길 4 유신빌딩 3층,055-636-7345,34.88838562,128.622862
2025-01-01,208,주영민비뇨기과의원,의원,0,2,경상남도,거제시,거제중앙로 1938,055-634-1365,34.8909854,128.6221705
2025-01-01,209,거창적십자병원,병원,91,11,경상남도,거창군,거창읍 중앙로 91,055-949-3332,35.68671628,127.9088538
2025-01-01,210,거창수이비인후과의원,의원,0,10,경상남도,거창군, 거창읍 거열로 116,055-945-9978,35.68860738,127.9065093
2025-01-01,211,고려정형외과의원(거창),의원,0,5,경상남도,거창군,거창읍 강남로 194 고려정형외과의원,055-943-9811,35.6850555,127.9184123
2025-01-01,212,강병원,병원,116,7,경상남도,고성군,고성읍 중앙로 49,055-673-0101,34.97418021,128.3251966
2025-01-01,213,고성비뇨기과의원,의원,0,3,경상남도,고성군,고성읍 동외로 157,055-674-7575,34.97536893,128.3256503
2025-01-01,214,정일성의원,의원,0,13,경상남도,고성군,고성읍 송학로 122번길 19-2 1층 정일성의원,055-673-8866,34.9774291,128.3238514
2025-01-01,215,조은금강병원,종합병원,281,19,경상남도,김해시,김해대로 1814-37,055-330-0300,35.2621609,128.8615433
2025-01-01,216,의)한솔의료재단 한서재활요양병원,요양병원,292,9,경상남도,김해시,진영읍 진영로454번길 102-10 한서재활요양병원,055-346-1222,35.29226638,128.7524592
2025-01-01,217,메가병원,병원,209,10,경상남도,김해시,계동로 237 (대청동) 메가병원,055-903-9000,35.19132938,128.8038813
2025-01-01,218,굿모닝내과의원,의원,0,3,경상남도,김해시,분성로 321 (서상동) 302호,055-335-3565,35.23361666,128.881126
2025-01-01,219,서울안과의원,의원,0,2,경상남도,김해시,"내외중앙로 84 서울메디컬센터 8층,9층",055-327-7582,35.23736552,128.8675541
2025-01-01,220,콩앤팥내과의원,의원,0,5,경상남도,김해시,"계동로 102번길 31, 1.2층",055-313-0808,35.18639529,128.797585
2025-01-01,221,현대정형외과의원,의원,18,12,경상남도,김해시,"구산로19, 2층",055-902-3300,35.24903275,128.8708761
2025-01-01,222,남해병원,병원,142,8,경상남도,남해군,남해읍 화전로 169,055-863-2201,34.84647422,127.8942802
2025-01-01,223,연세안과의원,의원,0,1,경상남도,남해군,남해읍 화전로 85 연세안과 의원,055-862-0357,34.83882019,127.8938524
2025-01-01,224,일등내과의원,의원,0,8,경상남도,남해군,"화전로 96번가길 4, 3층",055-863-1012,34.8400292,127.8950318
2025-01-01,225,밀양윤병원,병원,183,19,경상남도,밀양시,삼문중앙로 32(삼문동),055-354-2200,35.48463811,128.7556289
2025-01-01,226,행복한병원,병원,60,4,경상남도,밀양시,하남읍 수산중앙로 56-2,055-391-0090,35.37464081,128.7115138
2025-01-01,227,밀양선비뇨기과의원,의원,0,2,경상남도,밀양시,중앙로 413 제일빌딩 302호,055-352-7512,35.4965672,128.7477719
2025-01-01,228,우안과의원,의원,0,1,경상남도,밀양시,석정로 7-1,055-355-2112,35.49154129,128.7529604
2025-01-01,229,사천중앙요양병원,요양병원,261,7,경상남도,사천시,사천읍 옥산로 127,055-851-5400,35.07917652,128.0969973
2025-01-01,230,(의)승연의료재단 삼천포서울병원,병원,406,19,경상남도,사천시,남일로 33,055-830-9900,34.93310621,128.08014
2025-01-01,231,우리메디컬의원,의원,24,24,경상남도,사천시,사천읍 진삼로 1481 2층,055-850-7575,35.08340402,128.0856411
2025-01-01,232,신등하나의원,의원,0,11,경상남도,산청군,신등면 신차로 509,055-974-0417,35.37754568,128.0103988
2025-01-01,233,청송의원,의원,0,7,경상남도,산청군,산청읍 웅석봉로 18,055-973-5422,35.41562257,127.875857
2025-01-01,234,베데스다복음병원,종합병원,201,12,경상남도,양산시,신기로 28(신기동),055-781-9708,35.35320646,129.0435873
2025-01-01,235,신세계요양병원,요양병원,274,5,경상남도,양산시,월라2길 45,055-365-6666,35.36405922,129.1496922
2025-01-01,236,더바른내과의원,의원,0,5,경상남도,양산시,"덕계로 61 태광프라자 2,3층",055-785-5888,35.3737068,129.1503134
2025-01-01,237,센텀플러스신경외과의원,의원,0,5,경상남도,양산시,물금읍 청운로 185,055-381-7588,35.31721776,129.0028186
2025-01-01,238,연세빛가정의학과의원,의원,0,6,경상남도,양산시,물금읍 증산역로 152,055-382-7119,35.30917645,129.0061941
2025-01-01,239,이진정형외과의원,의원,0,9,경상남도,양산시,덕계로 22,055-364-5511,35.37033452,129.1485488
2025-01-01,240,의령병원,병원,58,8,경상남도,의령군, 의령읍 의병로 14길 10,055-573-4100,35.31875571,128.2585968
2025-01-01,241,덕영내과의원,의원,0,7,경상남도,의령군,의령읍 의병로 217 덕영내과,055-574-0071,35.31973426,128.2604476
2025-01-01,242,복음의원,의원,0,9,경상남도,의령군,의령읍 충익로 23-6,055-573-9977,35.31828943,128.2616307
2025-01-01,243,진주제일병원,종합병원,270,16,경상남도,진주시,진주대로 885,055-750-7123,35.17939614,128.0899484
2025-01-01,244,한빛요양병원,요양병원,289,6,경상남도,진주시,대신로 120,070-4121-1479,35.17098776,128.1185593
2025-01-01,245,반도병원,병원,168,9,경상남도,진주시,남강로 701,055-747-6000,35.19175624,128.0881394
2025-01-01,246,굿앤센신경외과의원,의원,8,8,경상남도,진주시,"동진로 22, 아주스타타워 8,9층",055-752-8090,35.1785189,128.0936365
2025-01-01,247,밝은삼성안과의원,의원,0,1,경상남도,진주시,진주대로 888 아이비타워 5층,055-795-1700,35.17980996,128.0910578
2025-01-01,248,성심메디컬의원,의원,29,6,경상남도,진주시,서장대로213번길 5 (이현동) 성심메디컬의원,055-746-5538,35.19077512,128.0560631
2025-01-01,249,진주역전이비인후과의원,의원,0,7,경상남도,진주시,관문로4 율곡스퀘어프런티어2 4층,055-759-3535,35.15224748,128.1178074
2025-01-01,250,의)창녕서울의료원 창녕서울병원,병원,100,4,경상남도,창녕군,창녕읍 창녕대로 122 창녕서울병원,055-532-1975,35.53422569,128.4969202
2025-01-01,251,중앙마취통증의학과의원,의원,0,8,경상남도,창녕군,창녕읍 명덕로 66-1,055-532-1450,35.54252038,128.4964311
2025-01-01,252,창녕원이비인후과의원,의원,0,4,경상남도,창녕군,"창녕읍 군청길 18,  501,502호(성동빌딩)",053-533-2224,35.54252931,128.4920638
2025-01-01,253,마산의료원,종합병원,298,17,경상남도,창원시,마산합포구 3·15대로 231,055-249-1000,35.19916991,128.5655555
2025-01-01,254,연세에스병원,종합병원,291,11,경상남도,창원시,진해구 해원로32번길 13,055-548-7700,35.1547295,128.69834
2025-01-01,255,창원파티마병원,종합병원,441,23,경상남도,창원시,"의창구 창이대로 45 (명서동, 창원파티마병원)",055-270-1109,35.23723809,128.6444869
2025-01-01,256,청록의료재단신세계요양병원,요양병원,617,6,경상남도,창원시,마산회원구 내서읍 죽암로 89,055-232-5600,35.25996031,128.5091709
2025-01-01,257,푸른요양병원,요양병원,679,6,경상남도,창원시,의창구 창원천로94번길 82-18 (대원동),055-270-8888,35.23724395,128.6584403
2025-01-01,258,365병원,병원,143,5,경상남도,창원시,마산회원구 3·15대로 686 (석전동),055-248-0365,35.23368271,128.5794188
2025-01-01,259,메트로병원,병원,240,12,경상남도,창원시,의창구 평산로219번길 3,055-259-7700,35.26084515,128.6258151
2025-01-01,260,진해세광병원,병원,160,7,경상남도,창원시,진해구 중원동로 55-1,055-540-3700,35.14975661,128.6609271
2025-01-01,261,가온내과의원,의원,0,11,경상남도,창원시,성산구 가음로 88 (가음동),055-282-8511,35.20541612,128.7030358
2025-01-01,262,새삼성내과의원,의원,0,9,경상남도,창원시,마산회원구 내서읍 삼계4길 34 3층,055-231-5502,35.23362493,128.5038971
2025-01-01,263,이동헌비뇨기과의원,의원,0,2,경상남도,창원시,마산회원구 회원동 북성로138 천지리치빌 306호,055-248-1097,35.21946162,128.5711559
2025-01-01,264,제니트비뇨기과의원,의원,0,4,경상남도,창원시,성산구 원이대로 595 고운메디컬 3층,055-285-2727,35.22800975,128.68026
2025-01-01,265,진해프라임비뇨기과의원,의원,0,2,경상남도,창원시,진해구 충장로 130 3층,055-547-8100,35.15174644,128.6662772
2025-01-01,266,화이트e치과,의원,0,7,경상남도,창원시,"마산회원구 3·15대로 686 9층,10층",055-255-2000,35.23368271,128.5794188
2025-01-01,267,통영서울병원,병원,165,4,경상남도,통영시,광도면 남해안대로 857,055-640-1112,34.87071713,128.4140637
2025-01-01,268,통영적십자병원,병원,106,8,경상남도,통영시,중앙로 97,055-644-8901,34.84238157,128.4198804
2025-01-01,269,최진화비뇨기과의원,의원,0,4,경상남도,통영시,"중앙로 90, 2층",055-646-7177,34.84165376,128.4191879
2025-01-01,270,통영예일안과의원,의원,0,1,경상남도,통영시,"중앙로 240, 2층",055-644-5419,34.8517363,128.4283704
2025-01-01,271,서울안과,의원,0,1,경상남도,하동군,하동읍 중앙로 15 2층(경남은행),055-882-2075,35.07014733,127.7508523
2025-01-01,272,청해의원,의원,0,9,경상남도,하동군, 진교면 진교중앙길 13,055-882-8540,35.02888673,127.9034521
2025-01-01,273,하동중앙의원,의원,29,11,경상남도,하동군,연화길 6 하동중앙내과정형외과의원,055-883-0222,35.07138718,127.7532389
2025-01-01,274,새롬재활요양병원(의료법인유천의료재단),요양병원,558,7,경상남도,함안군,칠원읍 예곡1길 13 새롬재활요양병원,055-580-5800,35.27587208,128.5317499
2025-01-01,275,(의)학산의료재단아라한국병원,병원,200,11,경상남도,함안군,경남 함안군 산인면 학산2길 17-50,055-736-4008,35.27427032,128.4317449
2025-01-01,276,보람가정의학과의원,의원,0,8,경상남도,함안군,원서로 10,055-586-0501,35.30827303,128.5183596
2025-01-01,277,참사랑의원,의원,0,8,경상남도,함안군,가야읍 중앙남1길 34,055-583-1929,35.27614943,128.407231
2025-01-01,278,함양성심병원,병원,90,9,경상남도,함양군,함양읍 고운로 70,055-963-4322,35.52070382,127.72931
2025-01-01,279,한마음연합의원,의원,29,12,경상남도,함양군,함양읍 용평길 44 한마음연합의원,055-964-2301,35.51983511,127.7318487
2025-01-01,280,(의)용성의료재단 삼성합천병원,병원,133,8,경상남도,합천군,합천읍 대야로 876 삼성합천병원,055-933-2200,35.56646584,128.1633399
2025-01-01,281,현대의원,의원,0,6,경상남도,합천군,삼가면 삼가1로 94,055-933-8578,35.41373704,128.122816
2025-01-01,282,세명병원,종합병원,364,2,경상북도,경산시,경안로 208,053-819-8389,35.82665942,128.7372929
2025-01-01,283,경북도립경산노인전문요양병원,요양병원,299,5,경상북도,경산시,경안로 23-10,053-819-0700,35.80933294,128.7392569
2025-01-01,284,새하양정형외과의원,의원,0,8,경상북도,경산시,하양읍 서사도리 9로 27,053-851-7585,35.91657201,128.8129401
2025-01-01,285,세명치과의원,의원,0,4,경상북도,경산시,경안로 206,053-812-2822,35.82596708,128.7370209
2025-01-01,286,정평경대연합신경외과의원,의원,0,8,경상북도,경산시, 대학로 10길 1,053-217-8899,35.83369237,128.7280052
2025-01-01,287,파티마연합속내과의원,의원,0,13,경상북도,경산시,하양읍 하양로 112 201호,053-852-7500,35.91391224,128.8196936
2025-01-01,288,동국대학교 경주병원,종합병원,327,25,경상북도,경주시,동대로 87,054-748-8139,35.85850641,129.19288
2025-01-01,289,중앙요양병원,요양병원,303,8,경상북도,경주시,금성로 281 (성건동),054-773-8500,35.84278557,129.206658
2025-01-01,290,큰마디큰병원,병원,110,5,경상북도,경주시,원화로 312(성동동) 큰마디병원,054-700-0119,35.84859527,129.2177165
2025-01-01,291,나득영심혈내과의원,의원,0,5,경상북도,경주시,원효로 51번길 12,054-772-9007,35.84329966,129.2066215
2025-01-01,292,박경대내과의원,의원,0,2,경상북도,경주시,화랑로 80 (서부동) 박경대내과의원,054-774-3337,35.84441526,129.2095054
2025-01-01,293,정흥채재활의학과의원,의원,0,6,경상북도,경주시,금성로 316,054-777-7277,35.84570003,129.2072224
2025-01-01,294,고령영생병원,병원,79,6,경상북도,고령군,대가야읍 중앙로 33,054-955-2661,35.72997452,128.2721527
2025-01-01,295,하하정형외과의원,의원,0,10,경상북도,고령군,다산면 다산로 701,054-954-9911,35.82324417,128.4540862
2025-01-01,296,순천향대학교 구미병원,종합병원,351,23,경상북도,구미시,1공단로 179(공단동),054-468-9114,36.10340832,128.3821847
2025-01-01,297,구미시립노인요양병원,요양병원,248,4,경상북도,구미시,야은로 37-1 (부곡동),054-440-1000,36.15316649,128.2902519
2025-01-01,298,고려마취통증의학과의원(구미),의원,29,8,경상북도,구미시, 금오산로 58,054-453-9797,36.12726673,128.3369394
2025-01-01,299,마디와신경외과의원,의원,0,4,경상북도,구미시,구미중앙로 149,054-457-1800,36.12617184,128.3384679
2025-01-01,300,삼성연합의원,의원,6,8,경상북도,구미시,인동가산로 19,054-474-8575,36.10706034,128.4192551
2025-01-01,301,하나이비인후과의원,의원,1,1,경상북도,구미시, 구미중앙로 111,054-455-8924,36.12778725,128.3345308
2025-01-01,302,덕산의료재단 김천제일병원,종합병원,296,17,경상북도,김천시,신음1길 12 (신음동) 김천제일병원,054-420-9407,36.1354534,128.1188216
2025-01-01,303,김천남산종합의원,의원,29,4,경상북도,김천시,김천로 192(남산동),054-434-2111,36.11912849,128.121185
2025-01-01,304,김천참좋은마취통증의학과의원,의원,0,5,경상북도,김천시,신음새동네길 1,054-431-8275,36.13469725,128.1178871
2025-01-01,305,세이치과의원,의원,0,1,경상북도,김천시,김천로 158,054-431-2275,36.1208439,128.1182772
2025-01-01,306,동춘의료재단 문경제일병원,종합병원,720,19,경상북도,문경시,당교3길 25,054-550-7793,36.5838133,128.1884846
2025-01-01,307,드림비뇨기과의원,의원,0,2,경상북도,문경시,"중앙로 127, 2층",054-504-7752,36.59650173,128.1999831
2025-01-01,308,삼성안과의원,의원,0,1,경상북도,문경시,점촌로 23,054-554-1119,36.59690705,128.2001182
2025-01-01,309,용이비인후과의원,의원,0,5,경상북도,문경시,중앙로 195 (흥덕동) 용이비인후과의원,054-556-7575,36.60180454,128.2031601
2025-01-01,310,(의)봉화해성병원,병원,97,5,경상북도,봉화군,봉화읍 보밑길 3,054-674-1332,36.89168892,128.7335032
2025-01-01,311,(의)삼백의료재단 상주성모병원,종합병원,201,16,경상북도,상주시,냉림서성길 7,054-532-5001,36.42081179,128.1599741
2025-01-01,312,강남비뇨기과의원,의원,0,5,경상북도,상주시,상산로 255 (남성동) 강남빌딩5층 강남비뇨기과,054-534-7575,36.41378306,128.1592013
2025-01-01,313,상주제일안과,의원,0,1,경상북도,상주시,상산로 251,054-536-7585,36.41330533,128.1592449
2025-01-01,314,(의)석촌의료재단 성주무강병원,병원,55,5,경상북도,성주군,성주읍 성주읍3길 5-3,054-932-1212,35.9188173,128.2864195
2025-01-01,315,안동의료원,종합병원,251,19,경상북도,안동시,태사2길 55(북문동470),054-850-6000~10,36.56820782,128.7320918
2025-01-01,316,경북도립안동노인전문요양병원,요양병원,363,9,경상북도,안동시,남후면 남일로 1463,054-851-6110,36.52369023,128.6894303
2025-01-01,317,용상황금연합의원,의원,0,12,경상북도,안동시,경동로 847 (용상동) 용상황금연합의원 1층,054-822-7500,36.56103118,128.7499428
2025-01-01,318,영덕아산병원,병원,84,6,경상북도,영덕군,영해면 영덕로 1621,054-730-0114,36.52367553,129.4023488
2025-01-01,319,영덕경대안과의원,의원,3,1,경상북도,영덕군,영덕읍 중앙길 90 영덕경대안과,054-734-5817,36.41094344,129.3702148
2025-01-01,320,(의)명성의료재단 영양병원,병원,50,3,경상북도,영양군,영양읍 동서대로 75,054-682-0727,36.66261492,129.1172659
2025-01-01,321,(의)청봉의료재단 성누가병원,병원,187,9,경상북도,영주시,구성로 329,054-639-9112,36.82138995,128.6246511
2025-01-01,322,영주기독병원,병원,70,5,경상북도,영주시,구성로 380,054-635-6161,36.82530252,128.6209389
2025-01-01,323,권오연치과의원,의원,0,1,경상북도,영주시,중앙로 78,054-636-0248,36.82211981,128.6246683
2025-01-01,324,김제욱피부비뇨기과의원,의원,0,5,경상북도,영주시,중앙로 122,054-635-8290,36.8258975,128.6260442
2025-01-01,325,맑은이비인후과의원,의원,0,3,경상북도,영주시,중앙로 122-1 (하망동) 1층 맑은이비인후과,054-631-3457,36.82601453,128.6260676
2025-01-01,326,영남대학교부속 영천병원,종합병원,189,15,경상북도,영천시,오수1길 10(오수동),054-330-7042,35.95708746,128.9127824
2025-01-01,327,금호의원,의원,0,7,경상북도,영천시,금호읍 교대길 14 금호의원,054-336-7117,35.93235401,128.8718927
2025-01-01,328,영천이플란트치과의원,의원,0,1,경상북도,영천시,완산로 68,054-706-8275,35.96621989,128.9392964
2025-01-01,329,의료법인 서준의료재단 예천권병원,병원,181,9,경상북도,예천군,예천읍 동본리 시장로 136,054-654-6611,36.65738076,128.4589848
2025-01-01,330,서울삼성내과의원,의원,0,4,경상북도,예천군,예천읍 시장로 108,054-652-3410,36.65641941,128.4558808
2025-01-01,331,영남의원,의원,3,6,경상북도,예천군,예천읍 효자로 125 영남의원,054-653-7583,36.65846918,128.4571792
2025-01-01,332,울릉군보건의료원,의원,21,10,경상북도,울릉군,울릉읍 울릉순환로 396-18,054-790-6871,37.48590672,130.8995178
2025-01-01,333,울진군의료원,병원,60,15,경상북도,울진군,울진읍 현내항길 71,054-785-7027,36.99225143,129.409993
2025-01-01,334,누가의원,의원,0,7,경상북도,울진군,북면 울진북로 2067 누가의원,054-782-4979,37.10128719,129.3719988
2025-01-01,335,민치과의원,의원,0,1,경상북도,울진군,울진읍 울진중앙로 120,054-783-0050,36.99225405,129.4014107
2025-01-01,336,의성군공립요양병원,요양병원,196,5,경상북도,의성군,의성읍 안평의성로 1122-30,054-834-7400,36.35966951,128.6809804
2025-01-01,337,삼성연합의원(의성),의원,29,8,경상북도,의성군,안계면 안계길 171,054-861-5353,36.38627396,128.434598
2025-01-01,338,오복치과의원,의원,0,2,경상북도,의성군,의성읍 문소3길 110,054-833-7528,36.3556982,128.6944943
2025-01-01,339,진연합의원,의원,29,8,경상북도,의성군,의성읍 문소3길 109,054-832-7588,36.35540456,128.6938455
2025-01-01,340,청도대남병원,병원,245,9,경상북도,청도군,화양읍 청화로 79-7,054-373-0606,35.64863087,128.7368099
2025-01-01,341,마디연합정형외과의원,의원,29,1,경상북도,청도군,청도읍 청화로 99,054-373-9263,35.64726999,128.738255
2025-01-01,342,속튼튼의원,의원,0,4,경상북도,청도군,청도읍 청화로 154,054-371-0075,35.64369161,128.74265
2025-01-01,343,청도탑연합비뇨의학과의원,의원,0,2,경상북도,청도군,청도읍 청화로 179,054-373-1020,35.64259721,128.7447157
2025-01-01,344,청송군보건의료원,의원,46,7,경상북도,청송군,청송읍 의료원길 19,054-870-7111,36.43114646,129.0517719
2025-01-01,345,왜관병원,병원,51,15,경상북도,칠곡군,왜관읍 군청2길 10,054-971-1004,35.99612571,128.4015291
2025-01-01,346,더속편한내과의원,의원,0,4,경상북도,칠곡군,석적읍 강변대로 2288,054-977-4500,36.07556389,128.3942955
2025-01-01,347,우리삼성안과의원,의원,0,1,경상북도,칠곡군,왜관읍 중앙로 159,054-975-7582,35.98913919,128.3992423
2025-01-01,348,포항의료원,종합병원,298,26,경상북도,포항시,북구 용흥로 36,054-245-0137,36.035075,129.3537809
2025-01-01,349,경상북도립 포항노인전문요양병원,요양병원,166,4,경상북도,포항시,북구 용흥로 36,054-245-0138,36.035075,129.3537809
2025-01-01,350,좋은선린요양병원,요양병원,374,8,경상북도,포항시,북구 대신로 27 (대신동) 좋은선린요양병원,054-245-6000,36.04650918,129.3666946
2025-01-01,351,경대연합내과의원,의원,0,6,경상북도,포항시,북구 삼흥로 18,054-254-8282,36.06391753,129.3803492
2025-01-01,352,시원한신경과의원,의원,0,8,경상북도,포항시,남구 중흥로 88,054-285-8500,36.01298408,129.3507292
2025-01-01,353,우리연합의원,의원,29,12,경상북도,포항시,남구오천읍 정몽주로 560,054-292-9200,35.96799401,129.4163253
2025-01-01,354,제일좋은내과의원,의원,0,13,경상북도,포항시,남구 대이로 109,054-254-1212,36.02495662,129.3407379
2025-01-01,355,수완탑정형외과의원,의원,0,5,광주광역시,광산구,임방울대로 348,062-959-8575,35.19107327,126.8243807
2025-01-01,356,연세세브란스치과의원,의원,2,6,광주광역시,광산구,장신로 253,062-959-0202,35.19090603,126.8378887
2025-01-01,357,첨단메디케어의원,의원,20,8,광주광역시,광산구,월계로 223-8,062-720-9700,35.21364505,126.8508439
2025-01-01,358,최원내과의원,의원,0,1,광주광역시,광산구, 임방울대로 334 (수완동) 3층,062-954-0875,35.18977344,126.8241908
2025-01-01,359,더윈이비인후과의원,의원,0,9,광주광역시,남구,서문대로 675,062-676-0111,35.11956973,126.8986913
2025-01-01,360,조민석내과의원,의원,0,3,광주광역시,남구,서문대로 692,062-652-7070,35.12122236,126.8990311
2025-01-01,361,킹덤치과의원,의원,0,10,광주광역시,남구,제석로 110,062-671-4400,35.12421073,126.9075376
2025-01-01,362,힐링연합의원,의원,27,9,광주광역시,남구,서문대로 725 (진월동) 2층,062-651-8600,35.12403292,126.8978414
2025-01-01,363,김평남내과의원,의원,0,10,광주광역시,동구,백서로 134-1,062-233-7575,35.142118,126.9202477
2025-01-01,364,연합내과의원,의원,0,6,광주광역시,동구,남문로 696 (학동) 1층 연합내과,062-222-5651,35.13278215,126.9286769
2025-01-01,365,뉴스타정형외과의원,의원,27,2,광주광역시,북구,임방울대로 1055,062-463-7575,35.21216611,126.8728528
2025-01-01,366,에이치메디컬의원,의원,22,5,광주광역시,북구,서암대로 187,061-510-2003,35.16884057,126.9047573
2025-01-01,367,문영래정형외과병원,병원,50,3,광주광역시,서구,운천로 148 (쌍촌동) 2층,062-606-8275,35.14580553,126.85735
2025-01-01,368,박상훈내과의원,의원,0,10,광주광역시,서구,화개1로 45,062-653-9119,35.12800749,126.8549432
2025-01-01,369,상무탑정형외과의원,의원,0,5,광주광역시,서구,마륵복개로 91,062-384-8875,35.14616998,126.8491802
2025-01-01,370,고려마취통증의학과의원,의원,0,5,대구광역시,군위군,군위읍 중앙길 100 고려마취통증의학과의원,054-382-0922,36.23715223,128.5673717
2025-01-01,371,곽앤신이비인후과의원,의원,2,7,대구광역시,남구,월배로 474,054-638-7582,35.83526994,128.5562653
2025-01-01,372,서부영남내과의원,의원,0,5,대구광역시,남구,대명로 12 (대명동),053-656-7533,35.83755631,128.5588493
2025-01-01,373,원형마취통증의학과의원,의원,0,5,대구광역시,남구,대명로 304,053-622-4955,35.84450358,128.5893742
2025-01-01,374,상인요양병원,요양병원,183,4,대구광역시,달서구,월배로 247,053-282-5000,35.82002923,128.5403222
2025-01-01,375,김종원치과의원,의원,0,1,대구광역시,달서구,한실로 99,053-632-2804,35.80693632,128.5375445
2025-01-01,376,비앤비뇨의학과의원,의원,2,2,대구광역시,달서구,달구벌대로 1525,053-552-2525,35.85015341,128.5339066
2025-01-01,377,수연합내과의원,의원,0,5,대구광역시,달서구,월배로 219 801호,0507-1486-7578,35.81910639,128.5370845
2025-01-01,378,완쾌신경과의원,의원,0,5,대구광역시,달서구,월배로 175,053-642-2123,35.81758451,128.5327361
2025-01-01,379,좋은연합정형외과의원,의원,21,6,대구광역시,달서구,당산로 94,053-628-2727,35.84584159,128.5446933
2025-01-01,380,더퍼스트병원,병원,60,4,대구광역시,달성군,화원읍 비슬로 2463,053-710-8211,35.79812633,128.4878753
2025-01-01,381,구지척앤본신경외과의원,의원,0,4,대구광역시,달성군,구지면 과학마을로 42,053-615-6666,35.65555317,128.4179899
2025-01-01,382,유가제일연합의원,의원,0,13,대구광역시,달성군,"유가읍 테크노상업로 108 501호, 502호",053-292-7582,35.69324322,128.4611356
2025-01-01,383,현풍경대비뇨기과의원,의원,0,5,대구광역시,달성군,현풍읍 테크노상업로 20,053-611-8700,35.69097353,128.4535871
2025-01-01,384,바로본병원,병원,200,7,대구광역시,동구,국채보상로 769,1644-8575,35.86842122,128.6151866
2025-01-01,385,대동에스정형외과의원,의원,0,10,대구광역시,동구,"아양로 251 (신암동) 대동빌딩, 대동에스정형외과의원",053-943-2621,35.88763272,128.6401681
2025-01-01,386,라임비뇨기과의원,의원,0,2,대구광역시,동구,아양로 81,053-955-7600,35.88335295,128.6227783
2025-01-01,387,센트럴안과의원,의원,0,1,대구광역시,동구,동부로 22길 2,053-782-0055,35.87619389,128.6267311
2025-01-01,388,속안심내과연합의원,의원,0,3,대구광역시,동구,안심로 366,053-965-6633,35.86778424,128.7243643
2025-01-01,389,김정수이비인후과의원,의원,0,4,대구광역시,북구,학정로 415,053-327-3338,35.94184686,128.5629872
2025-01-01,390,브이웰마취통증의학과의원,의원,5,9,대구광역시,북구,동북로 244,053-956-4886,35.89528691,128.6174553
2025-01-01,391,새강북연합정형외과의원,의원,29,3,대구광역시,북구,학정로 419,053-324-7575,35.94210797,128.5630444
2025-01-01,392,태전정형외과연합의원,의원,0,6,대구광역시,북구,칠곡중앙대로 302,053-324-7585,35.92260509,128.5471486
2025-01-01,393,경대믿음정형외과의원,의원,15,7,대구광역시,서구,원대로 33,053-525-7582,35.88051153,128.5801279
2025-01-01,394,서내과의원,의원,0,3,대구광역시,서구,달구벌대로 1883 (내당동) 1층,053-556-4509,35.86191051,128.5702593
2025-01-01,395,이성원피부비뇨기과의원,의원,0,2,대구광역시,서구,달서로 201,053-562-8308,35.88031053,128.5713107
2025-01-01,396,9988정형외과의원,의원,0,7,대구광역시,수성구,수성로 353,053-784-9988,35.85707335,128.6134712
2025-01-01,397,S신경외과의원,의원,2,3,대구광역시,수성구,동대구로 86,053-764-1192,35.83780004,128.6245244
2025-01-01,398,다올연합의원,의원,0,11,대구광역시,수성구,범안로 60,053-782-2558,35.81766748,128.6443854
2025-01-01,399,시지율정신건강의학과의원,의원,0,1,대구광역시,수성구,달구벌대로 3188 (신매동) 3층 시지율정신건강의학과의원,053-792-7570,35.84031802,128.7052185
2025-01-01,400,준내과의원,의원,0,8,대구광역시,수성구,달구벌대로 2395 (범어동) 준내과의원,053-746-0875,35.85963014,128.6245188
2025-01-01,401,건강제일내과의원,의원,0,1,대구광역시,중구,달구벌대로 1993 (대신동) 2층,053-255-8333,35.86506302,128.5819528
2025-01-01,402,이튼연합치과의원남산점,의원,0,10,대구광역시,중구,남산로 61,053-254-8328,35.86206075,128.5821301
2025-01-01,403,제일신경외과의원,의원,2,7,대전광역시,대덕구,대덕대로 1610,042-934-8118,36.45034698,127.4267486
2025-01-01,404,청담내과의원,의원,0,6,대전광역시,대덕구,동춘당로 179 (법동) 201,042-635-7576,36.36736571,127.4316133
2025-01-01,405,나상연정형외과의원,의원,29,5,대전광역시,동구,동대전로 59-1(대동),042-628-3600,36.32904472,127.4412472
2025-01-01,406,덕인의원,의원,0,5,대전광역시,동구,대전로 782 (원동),042-272-4551,36.32954236,127.4339815
2025-01-01,407,마디신경외과의원,의원,1,6,대전광역시,동구,곤룡로 6,042-271-7008,36.27989728,127.4686125
2025-01-01,408,바른생각병원,병원,89,10,대전광역시,서구,청사로 128,042-337-0001,36.35945598,127.3778632
2025-01-01,409,김봉천정형외과의원,의원,27,6,대전광역시,서구,계백로 1130 (가수원동),042-541-4330,36.30385805,127.3490756
2025-01-01,410,대전참사랑요양병원,의원,132,5,대전광역시,서구,"계룡로491번길 8-0, 갤러리빌4차",070-4292-6554,36.3455441,127.3802574
2025-01-01,411,더봄구강악안면외과치과의원,의원,0,10,대전광역시,서구,대덕대로 246 LG전자베스트샵 4층,042-710-2875,36.35473543,127.3799842
2025-01-01,412,백세성모정형외과의원,의원,29,5,대전광역시,서구,도산로 286(가장동),042-716-0119,36.33199872,127.3855885
2025-01-01,413,삼성외과의원,의원,22,1,대전광역시,서구,"대덕대로176번길 9, 6~7층(둔산동)",042-361-5500,36.34869401,127.377659
2025-01-01,414,신선정형외과의원,의원,0,6,대전광역시,서구,관저중로 72 (관저동) 4층 신선정형외과,042-636-3003,36.29860923,127.335302
2025-01-01,415,브레인요양병원,요양병원,238,8,대전광역시,유성구,도안대로 567번길 26,042-365-0101,36.35155841,127.3386858
2025-01-01,416,메디안내과의원,의원,0,1,대전광역시,유성구,노은로 170 (지족동) 스타시티 3층,042-867-8275,36.37481409,127.3184289
2025-01-01,417,새봄안과의원,의원,3,1,대전광역시,유성구,"계룡로 114, BYC빌딩 7층(봉명동)",044-826-2475,36.35266353,127.3429771
2025-01-01,418,한샘내과의원,의원,0,4,대전광역시,유성구,"유성대로 772, 501호",042-822-7598,36.36096311,127.3362776
2025-01-01,419,김학영정형외과의원,의원,0,3,대전광역시,중구,계룡로 945 (대사동),042-254-7966,36.31909649,127.4169952
2025-01-01,420,지정신건강의학과의원,의원,0,1,대전광역시,중구,"중앙로 10(문화동, 태양빌딩 2층)",042-256-5551,36.32242334,127.4135513
2025-01-01,421,햇살이비인후과의원,의원,3,2,대전광역시,중구,"목중로 50, 406호 중촌제일프라자 3층",042-721-2795,36.3378965,127.4096036
2025-01-01,422,다사랑내과의원,의원,5,6,부산광역시,강서구,명지국제11로 25 (명지동) 동명빌딩 3층 다사랑내과의원,051-201-2115,35.10484907,128.921286
2025-01-01,423,세웅병원,병원,202,10,부산광역시,금정구,서동로 162,051-500-9700,35.21443412,129.1040818
2025-01-01,424,위드유이비인과의원,의원,0,4,부산광역시,금정구,"중앙대로 2101, 2층",051-583-7300,35.27186824,129.0923536
2025-01-01,425,한솔내과의원,의원,0,7,부산광역시,금정구,구서로17 덕원메디칼 2층,051-581-3242,35.24662372,129.0890258
2025-01-01,426,기장병원,병원,190,8,부산광역시,기장군,기장읍 대청로72번길 6,051-723-0171,35.2358148,129.2167608
2025-01-01,427,기장뉴욕치과의원,의원,0,1,부산광역시,기장군,"차성로 288번길 30, 2층",051-723-7285,35.24286976,129.2152402
2025-01-01,428,더본정형외과의원,의원,0,7,부산광역시,기장군,"정관읍 정관로 563, 301호",051-723-7600,35.3219144,129.1756324
2025-01-01,429,바르다마취통증의학과의원,의원,0,6,부산광역시,기장군,일광읍 해빛6로 85-16,051-724-6768,35.26563222,129.2256474
2025-01-01,430,수이비인후과의원,의원,0,4,부산광역시,기장군,정관읍 정관로 495 2층 수이비인후과,051-727-0575,35.32588368,129.1706526
2025-01-01,431,이광욱내과의원,의원,0,6,부산광역시,기장군,"읍내로 105, 5층",051-722-9957,35.24528865,129.2158147
2025-01-01,432,부산성소병원,병원,203,10,부산광역시,남구,수영로 175 (대연동),051-633-1123,35.13515152,129.0857817
2025-01-01,433,늘편한내과의원,의원,0,1,부산광역시,남구,진남로 4 3층,051-621-0119,35.13535682,129.092017
2025-01-01,434,박언비뇨의학과의원,의원,0,3,부산광역시,남구,수영로 260 5층 511-512호,051-622-5474,35.1351385,129.0952291
2025-01-01,435,센텀카이스트재활의학과의원,의원,0,6,부산광역시,남구,유엔평화로 4 갤러리메디타워 5-6층,051-711-7512,35.13465699,129.0916565
2025-01-01,436,비타민마취통증의학과의원,의원,0,3,부산광역시,동구,"중앙대로 375, 강남빌딩 3층",051-469-7581,35.12905258,129.0485825
2025-01-01,437,한빛내과의원,의원,0,8,부산광역시,동구,중앙대로 233,051-966-7800,35.11810525,129.0407297
2025-01-01,438,(의)상원의료재단 부산힘찬병원,병원,145,6,부산광역시,동래구,충렬대로 255 (수안동),051-559-0120,35.20148126,129.0871702
2025-01-01,439,베스트이비인후과의원,의원,1,8,부산광역시,동래구,"충렬대로 259, 3~3층",051-555-0110,35.20122426,129.0876829
2025-01-01,440,윤재웅신경외과의원,의원,0,15,부산광역시,동래구,반송로 325(명장동),051-710-3256,35.20852921,129.103189
2025-01-01,441,청춘안과의원,의원,0,1,부산광역시,동래구,명륜로 103번길 19,051-558-1070,35.20291571,129.0820058
2025-01-01,442,구포부민병원,병원,162,4,부산광역시,북구,사상로 607,051-366-7000,35.19831821,128.9905473
2025-01-01,443,김호일정형외과의원,의원,23,5,부산광역시,북구,시랑로 12(구포동),051-342-3355,35.20456134,129.0040874
2025-01-01,444,덕천요편한비뇨기과의원,의원,2,1,부산광역시,북구,만덕대로 22 드림메디컬빌딩 7층,051-365-2582,35.21033747,129.0075524
2025-01-01,445,덕천치과의원,의원,0,1,부산광역시,북구,만덕대로 17,051-313-6000,35.21075719,129.0069425
2025-01-01,446,서울아산이비인후과의원,의원,0,4,부산광역시,북구,만덕대로 24(덕천동),051-711-3323,35.21046192,129.0077626
2025-01-01,447,맑은유비뇨기과의원,의원,0,2,부산광역시,사상구,"낙동대로 786, 애진빌딩 502호",051-324-2481,35.13072782,128.9720835
2025-01-01,448,부산신경외과의원,의원,0,4,부산광역시,사상구,낙동대로 786 애진빌딩 6층,051-715-3301,35.13072782,128.9720835
2025-01-01,449,참좋은정형외과신경과의원,의원,0,6,부산광역시,사상구,"백양대로 893, 궁전빌딩 402호",051-312-7582,35.18586867,128.9907034
2025-01-01,450,중앙U병원,병원,143,7,부산광역시,사하구,감천로 59 (감천동),051-293-7766,35.09059355,128.9991003
2025-01-01,451,다대튼튼치과의원,의원,0,10,부산광역시,사하구,"다대로 698, 5층",051-715-2275,35.04859089,128.9653641
2025-01-01,452,박영수비뇨기과의원,의원,0,2,부산광역시,사하구,낙동대로 453,051-291-5732,35.10522536,128.9689173
2025-01-01,453,비에스숨이비인후과의원,의원,0,5,부산광역시,사하구,"낙동남로 1412 경부빌딩 7,8층",051-710-7579,35.10578886,128.966083
2025-01-01,454,속바른내과의원,의원,0,9,부산광역시,서구,구덕로 109,051-246-3100,35.09612667,129.0240973
2025-01-01,455,정원정형외과의원,의원,29,6,부산광역시,서구,대영로 46,051-248-0119,35.10943088,129.0166731
2025-01-01,456,메트로적추병원,병원,58,5,부산광역시,수영구,수영로 390-1,051-626-0250,35.14122007,129.1074255
2025-01-01,457,바른이김대식치과의원,의원,0,9,부산광역시,수영구,수영로 465 남천프라자 3층,051-715-5075,35.1475144,129.1100898
2025-01-01,458,수영청담비뇨의학과의원,의원,0,1,부산광역시,수영구,수영로 675,051-754-8111,35.1659524,129.1144899
2025-01-01,459,조이비인후과의원,의원,0,1,부산광역시,수영구,수영로 511-1,051-758-3593,35.15161435,129.1112211
2025-01-01,460,(의)열린의료재단연산열린의원,의원,0,3,부산광역시,연제구, 중앙대로 1091 제세빌딩 7층,051-714-0835,35.18541388,129.0806536
2025-01-01,461,라라정신건강의학과의원,의원,0,1,부산광역시,연제구,중앙대로 1077 상계빌딩 6~7층(연산동),051-515-9900,35.18431236,129.0798485
2025-01-01,462,박윤하비뇨기과의원,의원,0,2,부산광역시,연제구,반송로 5,051-867-5335,35.18675323,129.0820767
2025-01-01,463,보강재활의학과의원,의원,0,4,부산광역시,연제구,월드컵대로 3 (연산동) 신리메디컬 4층,051-851-8275,35.17511638,129.086094
2025-01-01,464,수도의원,의원,0,11,부산광역시,영도구,태종로 160,051-416-4031,35.09340518,129.0461512
2025-01-01,465,오션이비인후과의원,의원,0,1,부산광역시,영도구,동삼로 56 한나타워 2층,051-405-1004,35.07840675,129.0707956
2025-01-01,466,참좋은정형외과의원(영도),의원,0,4,부산광역시,영도구,대교로 1 (봉래동3가) 2층 참좋은 정형외과 의원,051-714-1742,35.09267347,129.0442445
2025-01-01,467,BS삼성안과의원,의원,0,1,부산광역시,중구,구덕로 90 서라벌빌딩 5층,051-808-7688,35.09757073,129.0260128
2025-01-01,468,애플치과의원,의원,0,1,부산광역시,중구," 비프광장로 40, B-501호",051-248-2828,35.09824026,129.0289058
2025-01-01,469,이지숨이비인후과의원,의원,0,4,부산광역시,중구,"구덕로 40, 호림빌딩 7층",051-243-0002,35.09845201,129.0315627
2025-01-01,470,굿모닝이비인후과의원,의원,12,6,부산광역시,진구,중앙대로 669,051-987-7575,35.15243563,129.0588373
2025-01-01,471,누네빛안과의원,의원,14,1,부산광역시,진구,부전로 77 누네메디타워 7~13층,051-810-5678,35.15692626,129.0545162
2025-01-01,472,이신내과의원,의원,0,3,부산광역시,진구,중앙대로 808 (전포동) 4층,051-715-5501,35.16350309,129.0641618
2025-01-01,473,부산노인전문제3병원,요양병원,251,12,부산광역시,해운대구,해운대로 469번가길 77,051-780-5557,35.16832105,129.1474867
2025-01-01,474,효성시티병원,병원,149,11,부산광역시,해운대구,해운대로 135(재송동),051-709-3000,35.18519563,129.1214614
2025-01-01,475,부강비뇨의학과의원,의원,0,1,부산광역시,해운대구,좌동순환로505 3층 부강비뇨의학과,051-747-7200,35.16567079,129.1682284
2025-01-01,476,상쾌한위앤장내과의원,의원,0,4,부산광역시,해운대구, 재반로 169 지하1층~5층,051-784-8276,35.1930226,129.1288931
2025-01-01,477,센텀소중한눈안과의원,의원,0,1,부산광역시,해운대구,센텀남대로 50,051-920-7788,35.1681039,129.1313034
2025-01-01,478,신세기이비인후과의원,의원,0,1,부산광역시,해운대구,"세실로 43, 301호",051-704-0370,35.16876256,129.1784486
2025-01-01,479,강남드림내과의원,의원,0,3,서울특별시,강남구,"자곡로120, 403~405호",02-459-9777,37.47214798,127.0964971
2025-01-01,480,아이준안과의원,의원,3,1,서울특별시,강남구,"강남대로376, B2,2,5,6,14층",02-556-8800,37.49656184,127.0287787
2025-01-01,481,화이팅정형외과의원,의원,10,2,서울특별시,강남구,"테헤란로 146, 현익빌딩 5층",02-2088-2075,37.50002271,127.0354858
2025-01-01,482,강남삼성드림이비인후과의원,의원,5,5,서울특별시,강남구,"테헤란로 514, 5층",02-565-7365,37.50742654,127.0597539
2025-01-01,483,강남서울엔비뇨기과의원,의원,1,1,서울특별시,강남구,"강남대로 376, 12층",02-553-8258,37.49656184,127.0287787
2025-01-01,484,허준원엠디피부과의원,의원,0,1,서울특별시,강남구,"언주로 174길 26, 남강빌딩 2층",02-518-0382,37.52796736,127.0358507
2025-01-01,485,강동성모요양병원,요양병원,349,7,서울특별시,강동구,올림픽로 80길 31 (천호동),02-488-0020,37.54347199,127.127188
2025-01-01,486,강동본터치정형외과의원,의원,13,19,서울특별시,강동구,"고덕로 262, 효성래링턴 타워더퍼스터 304~310호, 407~412호",02-442-0087,37.55466419,127.1546281
2025-01-01,487,류마내과의원,의원,0,9,서울특별시,강동구,천호대로 1099 (천호동) 5층 502호,02-474-5450,37.53576488,127.1341233
2025-01-01,488,안원식서울마취통증의학과,의원,0,1,서울특별시,강동구,"올림픽로 783, 3층 ",02-766-3087,37.55114307,127.1276079
2025-01-01,489,탑비뇨기과의원,의원,1,2,서울특별시,강동구," 천호대로 1015, 10층(천호동, 성보빌딩)",02-478-0100,37.53850081,127.1251072
2025-01-01,490,강북으뜸병원,병원,10,7,서울특별시,강북구,"도봉로 187, 2~5층, 지하1층",1522-1746,37.62541717,127.0261893
2025-01-01,491,강북보아스이비인후과의원,의원,0,5,서울특별시,강북구,"도봉로 242, 2층 1호",02-980-1530,37.63058739,127.0248871
2025-01-01,492,내일맑음재활의학과의원,의원,0,9,서울특별시,강북구,"솔샘로 203, 3층",02-2088-4922,37.62030675,127.015132
2025-01-01,493,서울신세계안과의원(강북),의원,2,1,서울특별시,강북구,"도봉로 52, 4~5층",02-1599-7397,37.61370336,127.0305328
2025-01-01,494,엘앤에스비뇨기과의원,의원,2,14,서울특별시,강북구,"도봉로 217, 25메디컬빌딩 5-7층",02-988-1151,37.62805734,127.0251127
2025-01-01,495,강서힘찬병원,병원,119,9,서울특별시,강서구,강서로56길 38 (등촌동),1899-2228,37.55919274,126.84067
2025-01-01,496,서울원병원,병원,68,7,서울특별시,강서구,"강서로 179, 6~10층",1544-5888,37.54236625,126.8393234
2025-01-01,497,강서고려비뇨의학과의원,의원,2,2,서울특별시,강서구,강서로 173 터보빌딩 5층,02-2065-8822,37.54191869,126.8396246
2025-01-01,498,강서이편한치과의원,의원,0,1,서울특별시,강서구,"강서로 254,401호(화곡동, 이편한세상아파트상가)",02-2694-2804,37.54826631,126.8409862
2025-01-01,499,삼성우리이비인후과의원,의원,1,4,서울특별시,강서구,"방화동로 92, 3층",02-6737-7582,37.56860435,126.8130173
2025-01-01,500,연세든든내과의원,의원,6,14,서울특별시,강서구,"화곡로 152, CUBE152 2, 4층(화곡동)",02-6347-8880,37.54089123,126.8386787
2025-01-01,501,사랑의병원,병원,78,8,서울특별시,관악구,남부순환로 1860 (봉천동),02-880-0114,37.47962639,126.9562857
2025-01-01,502,메가비뇨의학과의원,의원,0,6,서울특별시,관악구,"남부순환로1603, 3층",02-871-7575,37.4844356,126.928799
2025-01-01,503,서전성모안과의원,의원,0,3,서울특별시,관악구,"은천로 110, 202호",02-875-7572,37.48669333,126.9474355
2025-01-01,504,손장원정형외과의원,의원,0,5,서울특별시,관악구,관악로 203 2층,02-872-3900,37.48329859,126.953781
2025-01-01,505,주인종내과의원,의원,0,8,서울특별시,관악구,"신림로 318, 6층 (신림동) ",02-883-3379,37.48261181,126.9303854
2025-01-01,506,김종웅내과의원,의원,0,2,서울특별시,광진구,"용마산로 44 (중곡동, 삼경빌딩)",02-455-4038,37.55746889,127.0882484
2025-01-01,507,더바름정형외과의원,의원,29,3,서울특별시,광진구,아차산로 450-2 (구의동),02-455-2018,37.53875046,127.0924704
2025-01-01,508,아이코이비인후과의원,의원,0,3,서울특별시,광진구,"자양로 287, 3층",02-453-1920,37.55149527,127.0918068
2025-01-01,509,연세안안과의원,의원,0,1,서울특별시,광진구,"자양로 95, 801호(자양동, 도광빌딩)",02-446-6675,37.5362281,127.0831999
2025-01-01,510,미소들노인전문병원,요양병원,337,6,서울특별시,구로구,고척로21나길 88-41,02-3666-1114,37.5029012,126.8412007
2025-01-01,511,구로삼성정형외과의원,의원,1,4,서울특별시,구로구,"경인로 204, 501호, 601호",02-2683-8275,37.49569183,126.8438564
2025-01-01,512,권경수내과의원,의원,0,2,서울특별시,구로구,경인로 40길 11,02-2685-6612,37.49605922,126.859423
2025-01-01,513,신도림하나이비인후과의원,의원,3,1,서울특별시,구로구,"새말로 89, 태영빌딩 202호",02-859-5011,37.50561136,126.8898382
2025-01-01,514,에스탑치과의원,의원,0,8,서울특별시,구로구,경인로40길 12 (개봉동) 4층,02-2612-7528,37.49626371,126.8591372
2025-01-01,515,타임안과의원,의원,3,1,서울특별시,구로구,경인로 387 5층,02-6342-8000,37.49708615,126.8631394
2025-01-01,516,김홍열내과의원,의원,0,2,서울특별시,금천구,"금하로 651, 2,3층",02-805-6124,37.45408949,126.9033712
2025-01-01,517,마스터연세정형외과의원,의원,0,5,서울특별시,금천구,시흥대로 190,02-807-1175,37.45089119,126.9024458
2025-01-01,518,서울으뜸정형외과의원,의원,2,5,서울특별시,금천구,독산로 210 (독산동) K빌딩 2층 (독산동1038-28),02-807-0111,37.46575716,126.9022966
2025-01-01,519,연세조내과의원,의원,0,3,서울특별시,금천구,"시흥대로 224,  4층",02-803-2134,37.45393601,126.9013955
2025-01-01,520,노원삼성드림이비인후과의원,의원,5,3,서울특별시,노원구,노해로 482 (상계동),02-935-1365,37.65427649,127.0617159
2025-01-01,521,밝은미래안과,의원,0,1,서울특별시,노원구,동일로 1548 (상계동),02-939-3075,37.66666919,127.0576269
2025-01-01,522,새서울연합의원,의원,29,9,서울특별시,노원구,동일로 1678 (상계동),02-930-5858,37.67809692,127.0557028
2025-01-01,523,서울의원(서울),의원,0,8,서울특별시,노원구,"월계로 370 (월계동) 201~202호 서울의원(월계동, 희성프라자)",02-993-2161,37.6309792,127.0610228
2025-01-01,524,어비뇨기과,의원,3,3,서울특별시,노원구,동일로 1401 (상계동),02-930-0131,37.65357204,127.0603761
2025-01-01,525,오아로피부과의원,의원,0,2,서울특별시,노원구,노해로 507,02-930-1500,37.65542903,127.0638887
2025-01-01,526,태릉정원내과의원,의원,0,5,서울특별시,노원구,"동일로 1005, 5~6층",02-979-0333,37.61993079,127.074517
2025-01-01,527,강북힘찬병원,병원,152,7,서울특별시,도봉구,도봉로 446 (창동),02-1899-2226,37.64565942,127.0333817
2025-01-01,528,도봉연세위내과의원,의원,0,3,서울특별시,도봉구,"도봉로 684, 모비우스스퀘어 3층",02-6953-7561,37.66534897,127.0435886
2025-01-01,529,삼성나비뇨의학과의원,의원,0,2,서울특별시,도봉구,도봉로 551 (쌍문동) 4층 삼성나비뇨의학과의원,02-955-3077,37.65448921,127.0377553
2025-01-01,530,창동으뜸정형외과의원,의원,0,5,서울특별시,도봉구,마들로13길 61,02-6077-8880,37.6544888,127.0499496
2025-01-01,531,창동제일의원,의원,0,8,서울특별시,도봉구,노해로 65길 17-13,02-900-5011,37.65188458,127.0454497
2025-01-01,532,햇살요양병원,요양병원,208,6,서울특별시,동대문구,장한로 152,02-2244-5533,37.57400433,127.0721867
2025-01-01,533,서울나은병원,병원,72,5,서울특별시,동대문구,왕산로 137 (제기동) 서울나은병원,1544-6003,37.57856664,127.0387318
2025-01-01,534,노태호바오로내과의원,의원,0,1,서울특별시,동대문구,"홍릉로 3, 3층",02-968-7575,37.58071056,127.044218
2025-01-01,535,동인내과의원,의원,0,2,서울특별시,동대문구,천호대로 307,02-2245-0875,37.56584638,127.0546858
2025-01-01,536,서울베스트안과의원,의원,1,1,서울특별시,동대문구,왕산로 171,02-966-0225,37.57948606,127.0421051
2025-01-01,537,한양정형외과의원,의원,25,26,서울특별시,동대문구,천호대로 455,02-2242-7844,37.5611633,127.0697537
2025-01-01,538,현대중앙의원,의원,26,9,서울특별시,동대문구,사가정로 110 (전농동),02-2244-9600,37.57700406,127.0572847
2025-01-01,539,가장편한내과의원,의원,0,4,서울특별시,동작구,"상도로 247, 3층",02-824-0011,37.5050643,126.9462618
2025-01-01,540,강남가드비뇨기과의원,의원,0,3,서울특별시,동작구,동작대로 121 (사당동) 경원빌딩8층,02-566-8330,37.48748115,126.9818562
2025-01-01,541,삼성유신경외과의원,의원,0,7,서울특별시,동작구,상도로 174 (상도동) 4층,02-2135-2058,37.50425535,126.9384239
2025-01-01,542,성모정형외과의원,의원,0,5,서울특별시,동작구,상도로 81 (대방동) 7층 성모정형외과,02-817-7714,37.49994956,126.9295616
2025-01-01,543,코사랑이비인후과의원,의원,1,3,서울특별시,동작구,보라매로 113 3층,02-821-1515,37.49946592,126.9278947
2025-01-01,544,흑석메트로정형외과의원,의원,0,3,서울특별시,동작구,"흑석로 110, 1~2층",02-825-7582,37.50811778,126.9614206
2025-01-01,545,랩이비인후과의원,의원,3,4,서울특별시,마포구,"양화로 61, 두암빌딩1(일부)2(일부)층(서교동)",02-6015-5075,37.5508256,126.9150737
2025-01-01,546,박상수내과의원,의원,0,2,서울특별시,마포구,독막로 22 (합정동),02-332-5460,37.54823718,126.9157902
2025-01-01,547,서울본내과의원,의원,0,6,서울특별시,마포구,양화로 133 (서교동) 서교타워빌딩 5층,02-3143-2220,37.55523173,126.9209857
2025-01-01,548,연세수정형외과의원,의원,0,1,서울특별시,마포구,"신촌로 88, 2층",02-332-1320,37.55530778,126.9353356
2025-01-01,549,예담정형외과의원,의원,0,5,서울특별시,마포구,독막로 22 (합정동),02-335-2500,37.54823718,126.9157902
2025-01-01,550,남기헌정형외과의원,의원,0,4,서울특별시,서대문구,세검정로1길 5 (홍은동) 남기헌정형외과의원,02-396-5595,37.59211338,126.9421611
2025-01-01,551,세상의기쁨통증의학과,의원,0,6,서울특별시,서대문구,"신촌로35길 10, B426호",02-313-1315,37.55864552,126.9559782
2025-01-01,552,연세장안과의원,의원,0,3,서울특별시,서대문구,"수색로 56, 성공타워1 407, 408, 606, 607호(북가좌동)",02-372-5677,37.57086939,126.9126438
2025-01-01,553,한양그린내과의원,의원,0,7,서울특별시,서대문구,통일로 442 (홍제동),02-379-3377,37.58851596,126.9449294
2025-01-01,554,홍제연세참비뇨의학과의원,의원,3,7,서울특별시,서대문구," 통일로 433, 3층",02-396-5550,37.58758933,126.9450897
2025-01-01,555,강남레옹치과의원,의원,0,8,서울특별시,서초구,"강남대로 415, 대동빌딩 4층",02-535-2119,37.49956035,127.0263423
2025-01-01,556,김일중내과의원,의원,0,2,서울특별시,서초구,효령로 396 (서초동),02-3473-1356,37.48789897,127.0272285
2025-01-01,557,방배연내과의원,의원,0,4,서울특별시,서초구,"방배로 83, 방배센트럴빌딩 6층",02-522-9792,37.48186181,126.9970043
2025-01-01,558,서초성모이비인후과의원,의원,0,3,서울특별시,서초구,"반포대로27길 13, 203,204,205호",02-581-0075,37.48969131,127.0076085
2025-01-01,559,예루살렘정형외과의원,의원,13,1,서울특별시,서초구,남부순환로350길 33 (양재동) 예루살렘정형외과,02-575-0123,37.48344234,127.0364788
2025-01-01,560,9988병원,병원,42,6,서울특별시,성동구,왕십리로 269 (행당동) 9988병원 빌딩,02-2297-9988,37.55860732,127.0374825
2025-01-01,561,가온삼성비뇨의학과의원,의원,0,1,서울특별시,성동구,"독서당로 302, 대도빌딩3층",02-2294-8275,37.54761068,127.0227309
2025-01-01,562,박플란트치과의원,의원,0,1,서울특별시,성동구,"고산자로 253, 2층",02-2296-8228,37.56240332,127.0355888
2025-01-01,563,베스트서울이비인후과의원,의원,0,1,서울특별시,성동구,"동호로 102, 3층",02-2138-2675,37.5488829,127.0164221
2025-01-01,564,(의)유라의료재단 온누리요양병원,요양병원,210,6,서울특별시,성북구,"화랑로 271 (장위동, 동원베네스트)",02-919-2700,37.61218332,127.058733
2025-01-01,565,우신향병원,병원,80,8,서울특별시,성북구,안암로 99,02-927-3333,37.58487581,127.0312346
2025-01-01,566,굿데이이비인후과의원,의원,0,4,서울특별시,성북구,돌곶이로 25,02-966-9002,37.60665103,127.0610111
2025-01-01,567,미치과의원,의원,13,10,서울특별시,성북구,화랑로 87,02-912-2828,37.60273045,127.0417963
2025-01-01,568,에스메디센터내과외과의원,의원,26,12,서울특별시,성북구,"오패산로 99, 2~6층",02-6925-0700,37.61074986,127.0351696
2025-01-01,569,월곡순정형외과의원,의원,16,1,서울특별시,성북구,"화랑로 91, 2~3층",02-909-6002,37.60298529,127.0421101
2025-01-01,570,드림권내과의원,의원,0,3,서울특별시,송파구,양재대로 921 (가락동) 헬리오시티 상가 1A동 5002호,02-6224-7575,37.49636752,127.1094375
2025-01-01,571,송파본내과의원,의원,0,3,서울특별시,송파구,"송파대로 385, 석룡빌딩1층",02-423-6655,37.50166818,127.1097592
2025-01-01,572,시온정형외과의원,의원,0,3,서울특별시,송파구,가락로 166 (송파동) 3층,02-415-7110,37.50355485,127.1138198
2025-01-01,573,열린성모이비인후과의원,의원,0,5,서울특별시,송파구,"백제고분로 466(방이동, 세나빌딩 2층)",02-6413-1004,37.51195088,127.1135736
2025-01-01,574,잠실서울비뇨의학과의원,의원,1,2,서울특별시,송파구,"송파대로 562(신천동, 3층)",02-425-0010,37.51533208,127.0995521
2025-01-01,575,메디힐병원,병원,24,12,서울특별시,양천구,남부순환로 331 (신월동),02-2604-7551,37.5372612,126.8278385
2025-01-01,576,서울선정형외과의원,의원,6,7,서울특별시,양천구,"공항대로 630, 201~204호(목동, 어바니엘)",02-2038-2530,37.54653781,126.8747133
2025-01-01,577,시원한비뇨기과의원,의원,0,2,서울특별시,양천구,"중앙로 262, 402~3호",02-2062-7510,37.51984258,126.8534053
2025-01-01,578,우리내과의원,의원,0,1,서울특별시,양천구,오목로 312 (목동) 우리내과의원 3층,02-2648-5566,37.5246889,126.8720092
2025-01-01,579,(의)영등포병원,병원,89,12,서울특별시,영등포구,당산로31길 10 (당산동3가),02-2632-0013,37.52685794,126.8956105
2025-01-01,580,김종률내과의원,의원,0,2,서울특별시,영등포구,신길로 28 (신길동) 4층 김종률내과의원,02-831-1585,37.49519423,126.9090927
2025-01-01,581,아이비이비인후과의원,의원,0,2,서울특별시,영등포구,"국제금융로 86 (여의도동, 롯데캐슬 아이비) 216호 아이비이비인후과",02-784-7533,37.52020726,126.9317954
2025-01-01,582,영등포열린의원,의원,0,4,서울특별시,영등포구,"경인로 841, 영등포우체국 4,5층(영등포동4가)",02-2676-0832,37.51652987,126.9060451
2025-01-01,583,윤문수비뇨기과의원,의원,0,2,서울특별시,영등포구,영중로 46 (영등포동5가),02-2069-0221,37.52045056,126.9051961
2025-01-01,584,제이씨빛소망안과,의원,20,3,서울특별시,영등포구,국제금융로 6길 33 6층,02-785-1068,37.52079377,126.9269113
2025-01-01,585,김내과의원,의원,0,6,서울특별시,용산구,백범로 51길 6,02-703-2226,37.54043689,126.9592078
2025-01-01,586,서울정형외과의원(용산),의원,0,4,서울특별시,용산구,"한강대로 259(갈월동, 고려에이트리움 401호)",02-792-0321,37.54157954,126.9724088
2025-01-01,587,용산성모내과의원,의원,0,8,서울특별시,용산구,새창로 217 (한강로2가) 5층 용산성모내과,02-794-9992,37.53021307,126.9677787
2025-01-01,588,본서부병원,병원,49,5,서울특별시,은평구,은평로 133 (응암동) 본서부병원,02-3156-5000,37.6009289,126.9225918
2025-01-01,589,구파발정형외과의원,의원,0,8,서울특별시,은평구,진관2로 15-46 9층,02-334-8275,37.63864996,126.9190794
2025-01-01,590,연세큰숲내과의원,의원,0,4,서울특별시,은평구,"통일로 742, 한화빌딩 4,5층 일부호(불광동)",02-2038-8270,37.61182089,126.9293667
2025-01-01,591,연세탑치과의원,의원,0,11,서울특별시,은평구,"불광로 15, 2층",02-353-7522,37.60996035,126.9278869
2025-01-01,592,정승기정형외과의원,의원,0,8,서울특별시,은평구,통일로 710,02-358-2458,37.60936899,126.9312366
2025-01-01,593,서울적십자병원,종합병원,292,18,서울특별시,종로구,새문안로 9 (평동),02-2002-8000,37.56676342,126.9672073
2025-01-01,594,종로아산본정형외과의원,의원,0,5,서울특별시,종로구,"종로 123, 고영빌딩 3층",02-745-7575,37.57066554,126.9912768
2025-01-01,595,곽내과의원,의원,0,4,서울특별시,종로구,"자하문로 58, 3층",02-735-5135,37.58125158,126.9712757
2025-01-01,596,라임비뇨기과의원,의원,2,2,서울특별시,중구,퇴계로 395 (흥인동) 일신빌딩302호,02-2237-5200,37.56549973,127.0155248
2025-01-01,597,서울중앙의료의원,의원,0,13,서울특별시,중구,소공로 70 (충무로1가) 포스트타워 지하3층 서울중앙의료의원,02-6450-5500,37.56159511,126.9821741
2025-01-01,598,충무로정형외과의원,의원,0,3,서울특별시,중구,"충무로 3, 2층",02-2272-8885,37.56148859,126.9928832
2025-01-01,599,강북21세기병원,병원,87,5,서울특별시,중랑구,면목로 473 (상봉동) 강북21세기병원,1577-6336,37.59404922,127.0856288
2025-01-01,600,건강한성심의원,의원,29,10,서울특별시,중랑구,용마산로 503 (망우동) 성심빌딩 2.3.4.5층,02-437-6152,37.59611415,127.0999173
2025-01-01,601,권이비인후과의원,의원,0,1,서울특별시,중랑구,"망우로203, 201호",02-438-0660,37.59399362,127.0750077
2025-01-01,602,맑은성심피부과의원,의원,0,1,서울특별시,중랑구,용마산로 503,02-437-6151,37.59611415,127.0999173
2025-01-01,603,삼성속편한내과의원,의원,0,3,서울특별시,중랑구,"사가정로 398, JS빌딩 2층",02-432-5002,37.58028785,127.0888197
2025-01-01,604,새플란트치과의원,의원,0,11,서울특별시,중랑구,"상봉로 134, 3층(망우동, 삼부)",02-433-2080,37.5978749,127.0933279
2025-01-01,605,서문365정형외과의원,의원,25,10,세종특별자치시,세종시,한누리대로 2281 (대평동) SM메디컬센터 3층서문365정형외과,044-868-1039,36.47127572,127.2759102
2025-01-01,606,서울아산내과의원,의원,4,15,세종특별자치시,세종시,조치원읍 새내로 97 청춘메디컬 2층,044-862-7559,36.60039887,127.2980454
2025-01-01,607,세종연합비뇨기과의원,의원,3,2,세종특별자치시,세종시,한누리대로 273,044-867-2800,36.48852308,127.2564862
2025-01-01,608,이내과의원,의원,0,1,세종특별자치시,세종시,조치원읍 조치원로 31,044-865-3571,36.60169078,127.3001238
2025-01-01,609,이병진치과의원,의원,0,2,세종특별자치시,세종시,조치원읍 조치원로 7,044-862-2812,36.6014508,127.2976223
2025-01-01,610,장현진정형외과의원,의원,0,8,세종특별자치시,세종시,조치원로 62-1,044-863-1150,36.6023235,127.3035272
2025-01-01,611,허브연합내과의원,의원,0,10,세종특별자치시,세종시,해밀3로 51 허브빌딩 3층,044-715-7588,36.52881887,127.2656043
2025-01-01,612,울산병원,종합병원,297,19,울산광역시,남구,월평로171번길 13,052-259-5000,35.54622457,129.3231074
2025-01-01,613,배양규비뇨의학과의원,의원,3,14,울산광역시,남구,"삼산로 171, 2층, 3층",052-260-6000,35.53735184,129.3259167
2025-01-01,614,전내과의원,의원,0,5,울산광역시,남구, 번영로107번길1,052-267-7272,35.53476989,129.3287521
2025-01-01,615,전용진정형외과의원,의원,0,4,울산광역시,남구,"삼산로 266, 5층",052-260-0504,35.53878753,129.3362839
2025-01-01,616,동울산영상의학과의원,의원,3,1,울산광역시,동구,방어진순환도로 633 세인트에스타워9층,052-236-7799,35.49836087,129.4277093
2025-01-01,617,마디정형외과의원,의원,27,5,울산광역시,동구,방어진순환도로 577,052-235-5858,35.49349028,129.4264879
2025-01-01,618,신내과의원,의원,24,4,울산광역시,동구,방어진순환도로 651 (일산동) 3층,052-252-9477,35.49999476,129.4282563
2025-01-01,619,안신경외과의원,의원,15,1,울산광역시,동구,방어진순환도로 799,052-235-4900,35.51318687,129.430783
2025-01-01,620,울산시티병원,종합병원,190,20,울산광역시,북구,산업로 1007,052-280-9101,35.58281418,129.3590159
2025-01-01,621,울산숲정신건강의학과의원,의원,0,1,울산광역시,북구,"호계로 292, 3층",052-281-7582,35.62920988,129.351279
2025-01-01,622,서울산보람병원,종합병원,218,13,울산광역시,울주군,삼남면 중평로 53,052-255-7114,35.5603004,129.1208566
2025-01-01,623,이손요양병원,요양병원,287,7,울산광역시,울주군,삼남읍 하방로 39,055-780-3011,35.50644636,129.0903446
2025-01-01,624,백인정형외과의원,의원,3,8,울산광역시,울주군,언양읍 남문길 12,052-262-6900,35.56425062,129.1225332
2025-01-01,625,이주형내과의원,의원,0,6,울산광역시,울주군,"온양읍 온양로 105, 3층",052-237-8800,35.41029296,129.2834135
2025-01-01,626,(의)에스엠씨의료재단 울산세민병원,병원,147,8,울산광역시,중구,학성로 184,052-292-2000,35.55658402,129.3309765
2025-01-01,627,태강내과의원,의원,0,2,울산광역시,중구,번영로 475 홈플러스울산점 5층 태강내과,052-292-2975,35.56438243,129.334856
2025-01-01,628,하이울산신경과의원,의원,0,8,울산광역시,중구,"번영로484,3층",052-286-5300,35.56406598,129.3365715
2025-01-01,629,비에스종합병원,종합병원,262,16,인천광역시,강화군,강화읍 충렬사로 31 비에스종합병원,032-290-0001,37.73606863,126.4857254
2025-01-01,630,강화병원,병원,98,7,인천광역시,강화군,강화읍 강화대로312번길 11,032-930-8151,37.74243582,126.4960793
2025-01-01,631,(의)인성의료재단 한림병원,종합병원,414,25,인천광역시,계양구,장제로 722 (작전동),032-540-9114,37.5322425,126.7343372
2025-01-01,632,마음속내과의원,의원,2,4,인천광역시,계양구," 장제로 871 셀마파빌딩 3,4층",032-541-6767,37.54496059,126.7381396
2025-01-01,633,벗이비인후과의원,의원,0,3,인천광역시,계양구,"장제로 871, 2층",032-710-7531,37.54496059,126.7381396
2025-01-01,634,봄날요양병원,요양병원,189,15,인천광역시,남동구,인주대로 806 (구월동),032-464-9101,37.44836517,126.7267656
2025-01-01,635,153신경외과의원,의원,0,3,인천광역시,남동구,"호구포로 830, 5층",032-217-1100,37.45631829,126.7198041
2025-01-01,636,꽃보다이비인후과의원,의원,2,26,인천광역시,남동구,"구월남로 172, 3층 301호",032-465-1904,37.45275254,126.7084157
2025-01-01,637,메가비뇨의학과의원,의원,0,2,인천광역시,남동구,"논고개로 114, 에이스타워 301~2호",032-426-8600,37.40144336,126.7246677
2025-01-01,638,장편한내과의원,의원,0,1,인천광역시,남동구,"논고개로123번길 35 (논현동) 313,314호",032-431-7501,37.40151444,126.7220688
2025-01-01,639,인천광역시의료원,종합병원,184,22,인천광역시,동구,방축로 217,032-580-6000,37.47881119,126.668668
2025-01-01,640,동인천내과의원,의원,0,4,인천광역시,동구,"송현로 1, 송현프라자 401호",032-765-5676,37.47704735,126.6333124
2025-01-01,641,현대유비스병원,종합병원,300,16,인천광역시,미추홀구,독배로 503 (숭의동),032-890-5551,37.46160727,126.6430089
2025-01-01,642,인천메트로정형외과의원,의원,0,4,인천광역시,미추홀구,"용정공원로 83번길 59, 2층",032-891-8875,37.44750683,126.6493661
2025-01-01,643,주안성모이비인후과의원,의원,0,4,인천광역시,미추홀구,"석정로 391, 뉴글로벌빌딩 2층",032-872-8281,37.46719566,126.6790025
2025-01-01,644,부평세림병원,종합병원,277,17,인천광역시,부평구,부평대로 175,032-509-5750,37.50674157,126.7199396
2025-01-01,645,박현수정형외과의원,의원,18,7,인천광역시,부평구,"수변로 8, 파워프라자 2층",032-507-6222,37.48722157,126.7397324
2025-01-01,646,부평내과의원,의원,0,2,인천광역시,부평구,"부평대로 9, 문화오피스텔 4층",032-522-7563,37.49210129,126.7225753
2025-01-01,647,원더이비인후과의원,의원,1,6,인천광역시,부평구,"부평대로 19-1, 2층",032-330-2275,37.49315457,126.7224895
2025-01-01,648,우리베스트내과의원,의원,0,6,인천광역시,서구,"염곡로 464번길 15, 4층",032-715-6308,37.52638571,126.6711046
2025-01-01,649,조성원내과의원,의원,0,1,인천광역시,서구,청마로 163 당하메디칼 2층,032-565-0771,37.59199662,126.6766206
2025-01-01,650,한길정형외과의원,의원,10,5,인천광역시,서구,원적로 85 (가좌동) 201호,032-576-7582,37.49456871,126.6814046
2025-01-01,651,눈애안과의원,의원,1,1,인천광역시,연수구,"독배로 40번길 11, 효명프라자 304~5호",032-716-6647,37.42452385,126.6456324
2025-01-01,652,삼성드림이비인후과의원,의원,2,5,인천광역시,연수구,"센트럴로 232 (송도동, 더샵센트럴파크1) E동 2층",032-224-0365,37.39742561,126.6366442
2025-01-01,653,연세정형외과의원,의원,0,9,인천광역시,연수구,비류대로 194 (옥련동) 3층 연세정형외과의원,032-834-7000,37.42773612,126.6563079
2025-01-01,654,연세추의원,의원,0,3,인천광역시,연수구,"하모니로 178번길 22, GTX센트럴B동 501,502호",032-832-5775,37.38307519,126.6408333
2025-01-01,655,연수리더스내과의원,의원,0,8,인천광역시,연수구,"용담로 153, 대동월드스포츠센터 203호",032-719-9988,37.41327749,126.6814062
2025-01-01,656,인천광역시의료원 백령병원,병원,30,8,인천광역시,옹진군,백령면 백령로 233,032-836-1731,37.96800907,124.7210327
2025-01-01,657,하나의료조합영흥우리의원,의원,26,10,인천광역시,옹진군,"영흥면 영흥로 176번길 8, 203호(영흥늘푸른센터 2층)",032-886-9411,37.25885387,126.4937907
2025-01-01,658,장튼튼내과의원,의원,0,2,인천광역시,중구,"하늘달빛로 94, 스타타워 301~3호",032-752-2388,37.48730125,126.5574806
2025-01-01,659,하늘정형외과의원,의원,0,7,인천광역시,중구,"하늘중앙로 193, 조양타워 6,7층",032-747-1321,37.49036749,126.5606669
2025-01-01,660,강진의료원,병원,120,10,전라남도,강진군,강진읍 탐진로 5,061-433-2167-9,34.63749831,126.7581378
2025-01-01,661,강진88정형외과의원,의원,0,4,전라남도,강진군,강진읍 평동2길 30,061-433-8899,34.63803125,126.7680331
2025-01-01,662,오케이내과의원,의원,29,7,전라남도,강진군,강진읍 평동2길 30 지스퀘어1층,061-434-3900,34.63803125,126.7680331
2025-01-01,663,고흥종합병원,종합병원,251,12,전라남도,고흥군,고흥읍 고흥로 1935,061-835-6000,34.62168718,127.2942474
2025-01-01,664,녹동현대병원,병원,130,7,전라남도,고흥군,도양읍 차경구렁목길 215,061-840-1200,34.54622177,127.1457286
2025-01-01,665,박혜의원,의원,0,6,전라남도,고흥군,고흥읍 학교길 40,061-835-2281,34.6077333,127.2913668
2025-01-01,666,손치과의원,의원,0,1,전라남도,고흥군,고흥읍 터미널길 33,061-833-2875,34.60818794,127.2812229
2025-01-01,667,곡성사랑병원,병원,114,5,전라남도,곡성군,곡성읍 곡성로 761,061-360-6000,35.2762762,127.2879456
2025-01-01,668,최성식재활의학과의원,의원,0,13,전라남도,곡성군,곡성읍 중앙로 132 (청암센트럴빌) 102~105호 최성식재활의학과의원,061-362-0887,35.28190784,127.2968446
2025-01-01,669,광양사랑병원,종합병원,149,11,전라남도,광양시,공영로 71 (중동),061-797-7000,34.9361584,127.6971566
2025-01-01,670,광양병원,병원,30,1,전라남도,광양시,광양읍 인덕로 992,061-761-7577,34.97122803,127.5820598
2025-01-01,671,이사랑치과의원,의원,0,9,전라남도,광양시,공영로 73,061-792-9275,34.93603217,127.6971461
2025-01-01,672,현대의원,의원,0,4,전라남도,광양시,옥곡면 큰골길 8,061-772-7119,34.98895867,127.7012899
2025-01-01,673,구례병원,병원,89,5,전라남도,구례군,구례읍 동편제길 4,061-780-3300,35.21568511,127.4634826
2025-01-01,674,구례서울의원,의원,0,10,전라남도,구례군,구례읍 봉동길 7,061-783-7575,35.20955874,127.4683335
2025-01-01,675,한양마취통증의학과의원,의원,0,12,전라남도,구례군,구례읍 봉성로 110,061-782-7582,35.2119949,127.464759
2025-01-01,676,나주종합병원,종합병원,176,11,전라남도,나주시,영산로 5419 (성북동),061-330-6100,35.03674481,126.7215579
2025-01-01,677,나주비뇨기과의원,의원,0,8,전라남도,나주시,영산로 5419 (성북동) 신관3층 나주비뇨기과의원,061-334-8822,35.03674481,126.7215579
2025-01-01,678,박지우플란트치과의원,의원,0,11,전라남도,나주시,다시면 다시로 178,061-337-8828,35.01721075,126.6368928
2025-01-01,679,한가람내과의원,의원,0,4,전라남도,나주시,빛가람로 685,061-336-3033,35.02152097,126.786662
2025-01-01,680,담양사랑병원,병원,128,7,전라남도,담양군,담양읍 천변7길 19,061-380-9000,35.31529901,126.9825617
2025-01-01,681,나눔내과의원,의원,28,7,전라남도,담양군,수북면 추성1로 736 나눔내과의원,070-5176-1046,35.30165826,126.9319672
2025-01-01,682,목포시의료원,종합병원,120,14,전라남도,목포시,이로로 18,061-260-6500,34.80395142,126.4053686
2025-01-01,683,부부요양병원,요양병원,383,5,전라남도,목포시,영산로 620-1,061-989-9003,34.82038897,126.4223981
2025-01-01,684,김태우신경과의원,의원,0,6,전라남도,목포시,영산로 515 (상동) 2층,061-279-5500,34.81164778,126.4177013
2025-01-01,685,동서재활의학과의원,의원,19,6,전라남도,목포시,하당로 153번길 14,061-280-8113,34.80563384,126.4141006
2025-01-01,686,서울안과의원,의원,0,1,전라남도,목포시,비파로 106,061-283-3075,34.80752902,126.4239982
2025-01-01,687,우리고운피부과의원,의원,0,3,전라남도,목포시,영산로 246,061-279-3355,34.80263887,126.393286
2025-01-01,688,우리이비인후과의원,의원,0,6,전라남도,목포시,"산대로 2 (산정동) 2, 2층",061-276-7373,34.80225267,126.3920259
2025-01-01,689,대송의료재단 무안병원,종합병원,281,13,전라남도,무안군,무안읍 몽탄로 65,061-450-3000,34.99141601,126.4892462
2025-01-01,690,시그니티요양병원,요양병원,330,6,전라남도,무안군,삼향읍 남악로 250번길 59-30,061-288-5504,34.80303123,126.4713903
2025-01-01,691,남악하나내과의원,의원,0,10,전라남도,무안군,삼향읍 남악4로 86,061-280-4800,34.81315407,126.4663946
2025-01-01,692,위드유이비인후과의원,의원,0,7,전라남도,무안군,일로읍 오룡번영3로 40,061-283-3900,34.80354371,126.4835436
2025-01-01,693,한국신경외과의원,의원,0,3,전라남도,무안군,무안읍 무안중앙로 11,061-876-7582,34.98853163,126.4776895
2025-01-01,694,벌교삼호병원,병원,53,6,전라남도,보성군,벌교읍 남하로 12,061-859-5000,34.83354656,127.3462277
2025-01-01,695,보성아산병원,병원,120,6,전라남도,보성군,미력면 가평길 36-17,061-850-3114,34.77597658,127.1034071
2025-01-01,696,서병기내과의원,의원,0,9,전라남도,보성군,보성읍 중앙로 61-15,061-852-9878,34.76784435,127.0826626
2025-01-01,697,순천성가롤로병원,종합병원,589,24,전라남도,순천시,순광로 221,061-720-2000,34.96374966,127.542939
2025-01-01,698,메디팜요양병원,요양병원,341,9,전라남도,순천시,양율길 306(인월동),061-729-3306,34.89748427,127.4782136
2025-01-01,699,샘연합의원,의원,0,14,전라남도,순천시,팔마로 48,061-744-7707,34.94618298,127.4935071
2025-01-01,700,성모안과의원,의원,4,1,전라남도,순천시,이수로 317,061-721-0062,34.95412662,127.5183895
2025-01-01,701,손사랑연합의원,의원,0,18,전라남도,순천시,백강로 375-11,061-724-0994,34.96653006,127.5204964
2025-01-01,702,플러스내과의원,의원,25,6,전라남도,순천시,신월큰길 13,061-804-5121,34.96045157,127.5198309
2025-01-01,703,하나비뇨기과의원,의원,0,3,전라남도,순천시,순광로 14 드림내과건물 5층,061-722-8575,34.9545322,127.522953
2025-01-01,704,황인용신경과의원,의원,0,7,전라남도,순천시,이수로 321,061-724-5577,34.9540659,127.5189921
2025-01-01,705,신안대우병원,병원,30,3,전라남도,신안군,비금면 송치길 155-11,061-262-3301,34.72224956,125.9325019
2025-01-01,706,서울의원(신안),의원,43,9,전라남도,신안군,지도읍 봉리길 16-3,061-275-7650,35.06073081,126.2113918
2025-01-01,707,압해연합의원,의원,0,17,전라남도,신안군,압해읍 압해로 871-3,061-271-7583,34.86460327,126.3136621
2025-01-01,708,흑산면보건지소,의원,0,3,전라남도,신안군,흑산면 예리3길 61,061-275-9062,34.68739023,125.4458172
2025-01-01,709,여수전남병원,종합병원,283,18,전라남도,여수시,좌수영로 49 (광무동) (광무동120-1) 원무부,061-640-7575,34.74512475,127.7281921
2025-01-01,710,동인요양병원,요양병원,264,4,전라남도,여수시,좌수영로 319,061-640-8105,34.75913898,127.710658
2025-01-01,711,여수한국병원,병원,237,7,전라남도,여수시,여천체육공원길 10,061-653-2000,34.76124036,127.6750942
2025-01-01,712,밝은여수안과,의원,0,1,전라남도,여수시,좌수영로 25,061-665-1090,34.74274383,127.727763
2025-01-01,713,심병수신경외과의원,의원,0,3,전라남도,여수시,문수로 84,061-655-1700,34.75411165,127.704384
2025-01-01,714,아라이비인후과의원,의원,0,3,전라남도,여수시,시청로 19,061-685-5500,34.76343294,127.6624903
2025-01-01,715,정남진정형외과의원,의원,29,5,전라남도,여수시,신월로 735 (봉산동) 정남진정형외과,061-642-7878,34.73601171,127.7206976
2025-01-01,716,영광기독병원,종합병원,150,10,전라남도,영광군,영광읍 남천리 212,061-350-3000,35.27494923,126.5109211
2025-01-01,717,복음내과의원,의원,0,9,전라남도,영광군,옥당로 155,061-351-0124,35.27582486,126.5008043
2025-01-01,718,서울의원(영광),의원,0,7,전라남도,영광군,염산면 천년로 20-1,061-351-9530,35.2171466,126.374161
2025-01-01,719,영암한국병원,병원,126,10,전라남도,영암군,영암읍 오리정길 8,061-470-7114,34.79398186,126.701382
2025-01-01,720,서울정형외과의원(영암),의원,1,1,전라남도,영암군,영암읍 중앙로 66,061-473-2000,34.80159706,126.6995251
2025-01-01,721,영암내과의원,의원,0,6,전라남도,영암군,중앙로 34 영암내과,061-472-0055,34.79915165,126.6975965
2025-01-01,722,하나안과의원,의원,0,1,전라남도,영암군,영암읍 동문로 5 하나안과의원,061-471-2007,34.79615596,126.702386
2025-01-01,723,완도대성병원,병원,120,6,전라남도,완도군,완도읍 청해진동로 63,061-553-1234,34.31648722,126.7354349
2025-01-01,724,금일의원,의원,20,6,전라남도,완도군,금일읍 금일로 395-1,061-553-3577,34.34948698,127.0297585
2025-01-01,725,소안면 보건지소,의원,0,5,전라남도,완도군,소안면 소안로 213-1 소안면보건지소,061-550-6861,34.17145315,126.6530867
2025-01-01,726,완도금일보건지소,의원,0,5,전라남도,완도군,금일읍 금일로 397,061-550-6793,34.34927218,127.0299566
2025-01-01,727,완도소안의원,의원,0,15,전라남도,완도군,"소안면 소안로 177, (비자리)",061-554-8119,34.17333611,126.6496945
2025-01-01,728,완도신노화의원,의원,0,7,전라남도,완도군,노화읍 노화로870번길 23,061-553-5700,34.177355,126.5722065
2025-01-01,729,임태진내과의원,의원,0,7,전라남도,완도군,완도읍 개포로 130번길 17,061-555-2005,34.31891683,126.7446556
2025-01-01,730,장성병원,병원,167,5,전라남도,장성군,장성읍 오동촌길 16 (부강아트빌),061-390-9000,35.30383848,126.7909332
2025-01-01,731,장성기독의원,의원,0,9,전라남도,장성군,장성읍 영천로 200-1,061-393-3403,35.30223642,126.7848657
2025-01-01,732,장흥종합병원,종합병원,200,9,전라남도,장흥군,장흥읍 흥성로 74,061-862-8300-4,34.67713747,126.9113716
2025-01-01,733,장흥성심의원,의원,0,13,전라남도,장흥군,장흥읍 중앙로1길 13,061-863-5903,34.67777544,126.9101302
2025-01-01,734,정의원,의원,0,4,전라남도,장흥군,관산읍 관산로 92-6,061-867-8576,34.56333262,126.9386372
2025-01-01,735,(의) 남우의료재단 진도전남병원,병원,100,5,전라남도,진도군,진도읍 남문길 12-11,061-544-7933,34.4792698,126.2651069
2025-01-01,736,조도면보건지소,의원,0,3,전라남도,진도군,조도면 창유1길 58-26,061-542-5153,34.29485428,126.0466464
2025-01-01,737,함평성심병원,병원,130,5,전라남도,함평군,함평읍 영수길 136,061-324-0001,35.06206286,126.5198584
2025-01-01,738,하나로플란트치과의원,의원,0,1,전라남도,함평군,내바람길 42,061-894-7528,35.06253715,126.5210557
2025-01-01,739,해남종합병원,종합병원,293,16,전라남도,해남군,해남읍 해남로 45,061-530-0114,34.57109906,126.6125062
2025-01-01,740,해남한국병원,병원,95,3,전라남도,해남군,해남읍 중앙2로 123 해남한국병원,061-530-3000,34.56692304,126.5957286
2025-01-01,741,김만중내과의원,의원,0,2,전라남도,해남군,해남읍 천변1길 8,061-536-3737,34.56926843,126.5982283
2025-01-01,742,서울탑마취통증의학과의원,의원,0,4,전라남도,해남군,남부순환로 5,061-537-0999,34.57031929,126.6073537
2025-01-01,743,해남복음내과의원,의원,0,3,전라남도,해남군,"해남읍 중앙1로 2-14 2층, 해남복음내과의원",061-534-7504,34.57180035,126.6075905
2025-01-01,744,전남제일요양병원,요양병원,246,7,전라남도,화순군,화순읍 덕음로 999,061-900-1166,35.04915605,126.9850025
2025-01-01,745,화순고려병원,병원,327,6,전라남도,화순군,화순읍 충의로 109,061-370-3700,35.0560542,126.9896091
2025-01-01,746,한양내과의원,의원,0,11,전라남도,화순군,화순읍 자치샘로 36 옥천빌딩 2층,061-374-0333,35.06172926,126.9848252
2025-01-01,747,화순고인돌정형외과의원,의원,0,4,전라남도,화순군,화순읍 중앙로 69,061-373-7575,35.06064546,126.9888949
2025-01-01,748,화순튼튼마취통증의학과의원,의원,0,4,전라남도,화순군,화순읍 칠충로 141-7,061-372-7522,35.06114032,126.9833854
2025-01-01,749,고창병원,종합병원,188,11,전북특별자치도,고창군,고창읍 화신1길 9,063-560-5600,35.43637514,126.6933181
2025-01-01,750,우리들마취통증의학과의원,의원,0,11,전북특별자치도,고창군,고창읍 중앙로 206,063-562-7570,35.43498365,126.6980101
2025-01-01,751,이진홍내과의원,의원,0,1,전북특별자치도,고창군,고창읍 중앙로 230 이진홍내과의원,063-564-1343,35.43489446,126.7006106
2025-01-01,752,플란트유치과의원,의원,0,5,전북특별자치도,고창군,고창읍 보릿골로 115,063-923-9877,35.43564929,126.6953782
2025-01-01,753,군산의료원,종합병원,430,24,전북특별자치도,군산시,의료원로 27,063-472-5000,35.95493412,126.7119201
2025-01-01,754,군산원광효도요양병원,요양병원,564,7,전북특별자치도,군산시,조촌4길 11,063-450-0700,35.96755166,126.7356735
2025-01-01,755,(의)성하의료재단 누가병원,병원,148,5,전북특별자치도,군산시,백릉로 70,063-450-0904,35.97528902,126.7335434
2025-01-01,756,달팽이이비인후과의원,의원,3,3,전북특별자치도,군산시,궁포안1길 33,063-445-1005,35.97620181,126.7440844
2025-01-01,757,김제우석병원,병원,200,11,전북특별자치도,김제시,서암4길 45 (서암동),063-540-5159,35.80717592,126.8808591
2025-01-01,758,양춘호치과의원,의원,0,1,전북특별자치도,김제시,동서로 259,063-542-4567,35.80421783,126.8952949
2025-01-01,759,이명철정형외과,의원,29,1,전북특별자치도,김제시,동서로 125,063-540-8083,35.79778624,126.8829931
2025-01-01,760,하나이비인후과의원,의원,0,1,전북특별자치도,김제시,동서로 160,063-547-8275,35.79889041,126.8864073
2025-01-01,761,남원의료원,종합병원,350,19,전북특별자치도,남원시,충정로 365 (고죽동),063-620-1114,35.4321728,127.4067672
2025-01-01,762,미래연합의원,의원,29,7,전북특별자치도,남원시,시청로 3 (죽항동) 미래연합의원,063-636-7500,35.4113093,127.3929584
2025-01-01,763,중앙가정의학과의원,의원,0,5,전북특별자치도,남원시,용성로 79 (동충동),063-625-8977,35.40921465,127.3851348
2025-01-01,764,중앙안과의원,의원,0,1,전북특별자치도,남원시,용성로 113,063-632-3399,35.40999809,127.3885421
2025-01-01,765,무주군보건의료원,의원,50,5,전북특별자치도,무주군,무주읍 한풍루로 413,063-320-8314,36.00588397,127.6716961
2025-01-01,766,무주신경외과의원,의원,0,5,전북특별자치도,무주군,무주읍 향학로 33-1 무주신경외과,063-324-8275,36.00725611,127.6626829
2025-01-01,767,부안효요양병원,요양병원,175,8,전북특별자치도,부안군,행안면 염소로 25,063-580-7337,35.73043802,126.721333
2025-01-01,768,혜성병원,병원,130,5,전북특별자치도,부안군,부안읍 부령로 33,063-583-5001,35.73299028,126.7463516
2025-01-01,769,현대가정의학과의원,의원,0,1,전북특별자치도,부안군,부안읍 부풍로 48-1,063-584-6393,35.72688383,126.7321223
2025-01-01,770,의료법인태종의료재단 순창요양병원,요양병원,504,5,전북특별자치도,순창군,순창읍 순창로 105,063-650-8005,35.36506728,127.1411878
2025-01-01,771,대동의원,의원,0,3,전북특별자치도,순창군,순창읍 순창5길15,063-653-2828,35.37320331,127.1407056
2025-01-01,772,류재규내과의원,의원,0,3,전북특별자치도,순창군,순창읍 순창로 225-10,063-653-5885,35.37563482,127.142936
2025-01-01,773,이상희재활의학과의원,의원,0,7,전북특별자치도,순창군,순창읍 순창9길 12-14,063-653-8274,35.37607108,127.142172
2025-01-01,774,삼봉이치과의원,의원,0,1,전북특별자치도,완주군,삼례읍 삼봉중앙로 9,063-263-8275,35.9219238,127.1237165
2025-01-01,775,새봄가정의학과의원,의원,0,7,전북특별자치도,완주군,삼례읍 삼봉1로 2,063-262-1033,35.92250058,127.1237102
2025-01-01,776,한솔의원,의원,0,12,전북특별자치도,완주군,고산면 고산로 81 2층,063-262-0034,35.97524782,127.2059459
2025-01-01,777,한호수내과의원,의원,0,1,전북특별자치도,완주군,삼례읍 동학로 23,063-291-3900,35.90989331,127.0746252
2025-01-01,778,혁신오케이정형외과의원,의원,20,2,전북특별자치도,완주군,이서면 기지로 54 비씨엠타워 2층,063-277-7500,35.83806448,127.0578149
2025-01-01,779,익산병원,종합병원,274,23,전북특별자치도,익산시,무왕로 969 (신동),063-840-9114,35.9617291,126.966553
2025-01-01,780,익산제일병원,병원,99,6,전북특별자치도,익산시,평동로 665,063-840-2305,35.93135281,126.9526524
2025-01-01,781,김종성비뇨기과의원,의원,1,2,전북특별자치도,익산시,무왕로 1073 (영등동) (영등동) 하나은행 2층,063-834-7722,35.95876358,126.9759922
2025-01-01,782,오강렬내과의원,의원,0,2,전북특별자치도,익산시,익산대로 198,063-858-9119,35.94364879,126.9488106
2025-01-01,783,이기훈내과의원,의원,0,1,전북특별자치도,익산시,황등면 황등서로 4,063-852-3321,36.00321647,126.9439509
2025-01-01,784,다사랑의원,의원,0,4,전북특별자치도,임실군,임실읍 봉황로 203,063-644-2400,35.61809401,127.2828704
2025-01-01,785,임실군보건의료원,의원,15,7,전북특별자치도,임실군,임실읍 호국로 1680,063-640-3320,35.61250293,127.2869822
2025-01-01,786,임실내과의원,의원,0,1,전북특별자치도,임실군,임실읍봉황로 159 임실내과,063-644-7575,35.61467966,127.2801413
2025-01-01,787,장수군보건의료원,의원,30,11,전북특별자치도,장수군,장수읍 장천로 247,063-351-8000,35.65458232,127.5194351
2025-01-01,788,참가정의학과의원,의원,0,1,전북특별자치도,장수군,장계면 한들로 93 참가정의학과의원,063-351-7277,35.73147639,127.5822953
2025-01-01,789,전주예수병원,종합병원,756,30,전북특별자치도,전주시,완산구 서원로 365 (중화산동1가),063-230-8114,35.81432735,127.1326112
2025-01-01,790,전주시립요양병원,요양병원,185,4,전북특별자치도,전주시,완산구 능안자구길 80 (삼천동3가),063-220-9700,35.80408413,127.0857325
2025-01-01,791,호성전주병원,병원,122,10,전북특별자치도,전주시,덕진구 동부대로 895 (호성동1가) 호성전주병원,063-240-8800,35.86545972,127.1479005
2025-01-01,792,대한결핵협회 전북특별자치도지부 복십자의원,의원,0,1,전북특별자치도,전주시,덕진구 백제대로 789,063-714-3104,35.84769881,127.1548431
2025-01-01,793,삼성가정의학과의원,의원,0,10,전북특별자치도,전주시,완산구 난전들로 266,063-285-6002,35.79216863,127.1171206
2025-01-01,794,장인수가정의학과의원,의원,0,1,전북특별자치도,전주시,덕진구 쪽구름로 120,063-214-7582,35.87416485,127.0721499
2025-01-01,795,장하림의원,의원,0,11,전북특별자치도,전주시,완산구 거마평로 146,063-236-7975,35.80561523,127.1169831
2025-01-01,796,정읍아산병원,종합병원,250,15,전북특별자치도,정읍시,충정로 606-22 (용계동),063-530-6114,35.58844211,126.8244772
2025-01-01,797,정읍사랑병원,병원,260,7,전북특별자치도,정읍시,상동중앙로 94 (상동),063-530-3100,35.56457304,126.8714753
2025-01-01,798,진안군의료원,병원,85,10,전북특별자치도,진안군,진안읍 진무로 1145,063-430-7000,35.79523458,127.4316346
2025-01-01,799,김홍기가정의학과의원,의원,0,4,전북특별자치도,진안군,진안읍 중앙로88,063-433-2341,35.79242739,127.426975
2025-01-01,800,진안치과의원,의원,0,1,전북특별자치도,진안군,진안읍 진무로 1102 진안치과,063-432-1771,35.79182432,127.429048
2025-01-01,801,안덕의원,의원,0,1,제주특별자치도,서귀포시,안덕면 화순로 112,064-794-0906,33.24664818,126.3342747
2025-01-01,802,서귀포의료원,종합병원,291,17,제주특별자치도,서귀포시,장수로 47,064-730-3000,33.25598083,126.562949
2025-01-01,803,제주한라병원,종합병원,534,25,제주특별자치도,제주시,도령로 65 (연동),064-740-5000,33.49026973,126.4849149
2025-01-01,804,서귀포열린병원,병원,73,6,제주특별자치도,서귀포시,일주동로 8638 (동홍동),064-762-8001,33.25446758,126.5654204
2025-01-01,805,남원의원,의원,0,11,제주특별자치도,서귀포시,남원읍 태위로 636,064-764-4156,33.2777096,126.7146099
2025-01-01,806,서울삼성재활의학과의원,의원,0,7,제주특별자치도,서귀포시,대정읍 하모상가로 49,064-792-8887,33.22210705,126.2539789
2025-01-01,807,연합치과의원,의원,0,11,제주특별자치도,서귀포시,일주동로 8614 2층,064-762-2275,33.2548562,126.5678501
2025-01-01,808,의료법인열린의료재단서연의원,의원,0,1,제주특별자치도,서귀포시,중정로 123,064-763-4100,33.24881613,126.5694829
2025-01-01,809,최선365의원,의원,0,10,제주특별자치도,서귀포시,성산읍 고성오조로 67 1층,064-784-6333,33.44958349,126.9145884
2025-01-01,810,해비치의원,의원,0,7,제주특별자치도,서귀포시,"표선면 표선중앙로 86, 2층",064-787-6780,33.32571738,126.8331013
2025-01-01,811,제주대학교병원,종합병원,660,26,제주특별자치도,제주시,아란13길 15,064-717-1114,33.46720781,126.5452013
2025-01-01,812,늘봄재활요양병원,요양병원,149,1,제주특별자치도,제주시,관덕로 30,064-752-0022,33.51298196,126.5224155
2025-01-01,813,제주의료원 부속요양병원,요양병원,199,6,제주특별자치도,제주시,산천단남길 10 (아라일동) 부속요양병원,064-720-2222,33.44488669,126.560845
2025-01-01,814,제주의료원,병원,207,8,제주특별자치도,제주시,산천단남길 10,064-720-2222,33.44488669,126.560845
2025-01-01,815,동산내과의원,의원,0,7,제주특별자치도,제주시,"중앙로 337,3층 301,302호",064-723-0808,33.49149291,126.537242
2025-01-01,816,문의원,의원,0,2,제주특별자치도,제주시,한림읍 한림로 652,064-796-0160,33.41382926,126.2628721
2025-01-01,817,서울아산정형외과의원,의원,0,3,제주특별자치도,제주시,"조천읍 함덕 13길 1 2,3층",064-782-8275,33.54153797,126.6674617
2025-01-01,818,연세차내과의원,의원,0,2,제주특별자치도,제주시,"우평로 338, 4,5층",064-747-2375,33.48419319,126.430536
2025-01-01,819,김광석외과의원,의원,0,7,충청남도,계룡시,엄사면 번영로 14,042-841-4411,36.28828668,127.2435807
2025-01-01,820,공주의료원,종합병원,297,24,충청남도,공주시,무령로 77,041-962-1111,36.45887782,127.1095012
2025-01-01,821,현대요양병원,요양병원,236,5,충청남도,공주시,번영2로 18-10(신관동),041-850-7500,36.46884668,127.1329866
2025-01-01,822,공주서울내과의원,의원,0,4,충청남도,공주시,웅진로 186 (산성동) 2층 공주서울내과의원,041-853-7582,36.45692059,127.1251535
2025-01-01,823,금산365의원,의원,25,8,충청남도,금산군,금산읍 후곤천길 56,041-754-9365,36.10613463,127.4881192
2025-01-01,824,속편한내과의원,의원,0,9,충청남도,금산군,"금산읍 금산로 1491, 2층",041-753-5575,36.10682489,127.4893588
2025-01-01,825,추부의원,의원,0,4,충청남도,금산군,추부면 마전로 56 추부의원,041-752-9950,36.19120539,127.4670648
2025-01-01,826,하나치과의원,의원,0,11,충청남도,금산군,"금산읍 인삼로 65, 303호(엔이시티)",041-751-7522,36.10339805,127.4889033
2025-01-01,827,백제종합병원,종합병원,542,21,충청남도,논산시,시민로294번길 14,041-733-2191,36.19273677,127.0942515
2025-01-01,828,고려병원,병원,54,6,충청남도,논산시,해월로 151,041-732-3489,36.20439173,127.0838089
2025-01-01,829,김현장외과의원,의원,0,2,충청남도,논산시, 해월로 178(반월동),041-734-5544,36.20537593,127.0864107
2025-01-01,830,당진성모병원,병원,52,7,충청남도,당진시,당진중앙1로 43 (읍내동),041-351-0200,36.89321515,126.6275377
2025-01-01,831,서울신경외과의원,의원,0,9,충청남도,당진시,계성3길 31-4 (읍내동),041-352-2166,36.89887912,126.6334501
2025-01-01,832,보령아산병원,종합병원,244,13,충청남도,보령시,죽성로 136,041-930-5114,36.38114796,126.6228405
2025-01-01,833,서광정형외과의원,의원,17,8,충청남도,보령시,주공로 5 (동대동) 서광정형외과,041-931-7279,36.34572794,126.6023428
2025-01-01,834,푸른정형외과의원,의원,0,6,충청남도,보령시,"명천중앙길 8, 104호",041-931-2386,36.34388756,126.6021751
2025-01-01,835,건양대학교 부여병원,병원,81,9,충청남도,부여군,부여읍 계백로 200,041-837-1200,36.27500985,126.902242
2025-01-01,836,레나의원,의원,0,10,충청남도,부여군,"부여읍 사비로 86, 우영플라자 3층",041-836-7772,36.28039626,126.9108042
2025-01-01,837,부여이비인후과의원,의원,0,3,충청남도,부여군,"부여읍 성왕로 196, 3층",041-408-7500,36.28191711,126.9095698
2025-01-01,838,서산의료원,종합병원,256,18,충청남도,서산시,중앙로 149 (석림동),041-689-7000,36.77575211,126.4649792
2025-01-01,839,수내과의원,의원,0,16,충청남도,서산시,안견로 190 (동문동) 2층 수내과의원,041-667-8600,36.78188145,126.4581468
2025-01-01,840,서해병원,병원,82,5,충청남도,서천군,서천읍 서천로 184,041-951-8282,36.08451284,126.6876059
2025-01-01,841,공정형외과의원,의원,26,8,충청남도,서천군,서천읍 충절로59번길 31-7,041-952-0788,36.07634081,126.6894512
2025-01-01,842,아산충무병원,종합병원,446,29,충청남도,아산시,문화로 381 (모종동),041-536-6666,36.77928761,127.019945
2025-01-01,843,장사랑연합내과의원,의원,0,22,충청남도,아산시,"번영로 223 (모종동) 4층,5층 장사랑연합내과의원",041-542-7582,36.78485391,127.0152247
2025-01-01,844,큰나무정형외과의원,의원,29,9,충청남도,아산시,배방읍 모산로 181,041-543-8275,36.77565836,127.0628061
2025-01-01,845,예산명지병원,병원,147,7,충청남도,예산군,예산읍 신례원로 26,041-335-2255,36.71293535,126.8338413
2025-01-01,846,내포아산의원,의원,0,12,충청남도,예산군,"삽교읍 예목로 154, 3층",041-404-7582,36.67082202,126.6838807
2025-01-01,847,천안충무병원,종합병원,365,30,충청남도,천안시,서북구 다가말3길 8,041-570-7644,36.79741936,127.1314887
2025-01-01,848,예일병원,병원,50,3,충청남도,천안시,서북구 충무로 129,041-571-7000,36.79305845,127.121756
2025-01-01,849,JS메디칼내과외과정형외과의원,의원,29,9,충청남도,천안시,서북구 직산읍 봉주로 51 JS메디칼의원,041-589-7575,36.87749291,127.1522335
2025-01-01,850,삼성비뇨기과의원,의원,1,2,충청남도,천안시,서북구 충무로 178,041-578-0875,36.79430445,127.1269858
2025-01-01,851,쌍용우리이비인후과의원,의원,3,3,충청남도,천안시,서북구 충무로 175 금정빌딩 4층,041-575-7533,36.79480537,127.1264759
2025-01-01,852,청양훈요양병원,요양병원,99,5,충청남도,청양군,청양읍 칠갑산로 157,041-943-8114,36.45084004,126.7932411
2025-01-01,853,청양군보건의료원,의원,12,12,충청남도,청양군,청양읍 칠갑산로7길 54,041-942-3401,36.45502192,126.8049344
2025-01-01,854,강비뇨기과의원(태안),의원,0,3,충청남도,태안군, 태안읍 동백로 301 3층,041-673-8008,36.74845668,126.3035401
2025-01-01,855,이신경외과의원,의원,0,10,충청남도,태안군,태안읍 동문1길 15,041-674-6006,36.74971365,126.301956
2025-01-01,856,태안군보건의료원,의원,30,8,충청남도,태안군,태안읍 서해로 1952-16,041-671-5300,36.75180753,126.3231746
2025-01-01,857,홍성의료원,종합병원,442,21,충청남도,홍성군,홍성읍 조양로 224,041-630-6114,36.5984482,126.6739113
2025-01-01,858,장수요양병원,요양병원,199,6,충청남도,홍성군,은하면 구성남로 381,041-642-0001,36.55238217,126.5694596
2025-01-01,859,연합의원,의원,0,5,충청남도,홍성군,홍성읍 내포로 18,041-631-8900,36.60026845,126.665822
2025-01-01,860,괴산성모병원,병원,40,11,충청북도,괴산군,괴산읍 임꺽정로 116,043-830-5405,36.815626,127.7841816
2025-01-01,861,중앙외과의원,의원,0,1,충청북도,괴산군,괴산읍 읍내로 11길 14,043-832-2448,36.80979352,127.7933994
2025-01-01,862,단양군보건의료원,병원,30,8,충청북도,단양군,단양읍 삼봉로 53,043-420-7700,36.9816295,128.3502996
2025-01-01,863,정민의료재단 보은한양병원,병원,79,3,충청북도,보은군,보은읍 보은로 102,043-544-1500,36.48326434,127.7182054
2025-01-01,864,민들레안과의원,의원,1,1,충청북도,보은군,보은읍 삼산남로 9 민들레안과,043-542-7588,36.48276744,127.7215441
2025-01-01,865,영동병원,병원,161,7,충청북도,영동군,영동읍 대학로 106,043-740-9000,36.18544621,127.7811201
2025-01-01,866,노상필내과의원,의원,0,8,충청북도,영동군,영동읍 중앙로 28 노상필내과의원,043-770-7171,36.17450525,127.7765815
2025-01-01,867,서외과의원,의원,29,1,충청북도,영동군,영동읍 학산영동로 1241,043-742-1171,36.17342605,127.7730162
2025-01-01,868,서울더편한치과의원,의원,0,11,충청북도,영동군,"영동읍 중앙로 43, 상가 2층 201호",043-742-2080,36.17567945,127.7779455
2025-01-01,869,(의)힐링의료재단 옥천성모병원,종합병원,164,12,충청북도,옥천군,옥천읍 성왕로 1195,043-730-7000,36.31332413,127.5720075
2025-01-01,870,드림이비인후과의원,의원,0,4,충청북도,옥천군,"옥천읍 삼금로 11 2층, 드림이비인후과의원",043-733-5800,36.29965851,127.5663033
2025-01-01,871,(의)태성의료재단 제일조은병원,병원,142,7,충청북도,음성군,금왕읍 음성로1230번길 10,043-883-8800,36.99805654,127.5982
2025-01-01,872,서울연합의원,의원,29,4,충청북도,음성군,대소면 오태로 175(대소면),043-883-2700,36.96648076,127.4943597
2025-01-01,873,조은내과의원,의원,0,3,충청북도,음성군,대소면 오태로 98,043-882-8880,36.96752572,127.4858513
2025-01-01,874,명지의료재단 명지병원,종합병원,221,16,충청북도,제천시,내토로 991,043-640-8114,37.16342734,128.2339498
2025-01-01,875,노병연내과의원,의원,0,1,충청북도,제천시,의림대로 153 (의림동) 3층,043-644-6670,37.14140892,128.2120217
2025-01-01,876,삼성바른정형외과의원,의원,0,5,충청북도,제천시,의림대로 123. 2층,043-643-3300,37.13873501,128.210641
2025-01-01,877,제천밝은안과의원,의원,0,1,충청북도,제천시,의림대로 222,043-643-4200,37.14697347,128.214514
2025-01-01,878,고려정형외과의원(증평),의원,0,5,충청북도,증평군,증평읍 중앙로 231 고려정형외과,043-838-7501,36.78592239,127.5832285
2025-01-01,879,(의)건명의료재단 중앙제일병원,종합병원,241,14,충청북도,진천군,진천읍 중앙북로 36,043-533-1711,36.85844231,127.4405224
2025-01-01,880,바른정형외과의원,의원,24,4,충청북도,진천군,진천읍 중앙북1길 11-4 바른정형외과,043-533-7588,36.86026836,127.4398138
2025-01-01,881,효성병원,종합병원,360,31,충청북도,청주시,상당구 쇠내로 16,043-221-5000,36.62430556,127.4956806
2025-01-01,882,의료법인 하람의료재단 청주탑요양병원,요양병원,295,5,충청북도,청주시,서원구 궁뜰로 16 (미평동) 청주탑요양병원,043-296-5000,36.60079141,127.4785421
2025-01-01,883,청주원광효도요양병원,요양병원,303,7,충청북도,청주시,흥덕구 월명로 15 (복대동) 원광효도요양병원,043-267-0301,36.63631074,127.4529084
2025-01-01,884,의)라온의료재단오창호수병원,병원,124,3,충청북도,청주시,청원구 오창읍 중심상업1로 54,043-214-1004,36.71476849,127.4277055
2025-01-01,885,청주현대병원,병원,185,4,충청북도,청주시,"흥덕구 비하로 65 (비하동, 현대병원)",043-237-2114,36.63298759,127.4246305
2025-01-01,886,김안과의원,의원,2,1,충청북도,청주시,서원구 사직대로 88,043-268-4131,36.63445556,127.4571483
2025-01-01,887,김영태신경외과의원,의원,29,7,충청북도,청주시,상당구 단재로 21-1 (석교동),043-258-0173~4,36.62648419,127.4930054
2025-01-01,888,서울아산비뇨의학과의원,의원,1,2,충청북도,청주시,"상당구 중고개로 180-5, 3층",043-286-8253,36.6208185,127.5154362
2025-01-01,889,청주웰치과의원,의원,0,7,충청북도,청주시,"흥덕구 2순환로 1120, 3-5층",043-238-9201,36.63500925,127.4233743
2025-01-01,890,건국대학교충주병원,종합병원,318,21,충청북도,충주시,국원대로 82 (교현동),043-840-8200,36.97931836,127.9290714
2025-01-01,891,송원요양병원,요양병원,195,5,충청북도,충주시,주덕읍 신양로 62,043-856-3501,36.97156578,127.7941228
2025-01-01,892,충주시노인전문병원,요양병원,252,5,충청북도,충주시,동량면 충원대로 1398,043-855-9393,37.04829452,127.9309535
2025-01-01,893,박봉안내과의원,의원,0,13,충청북도,충주시,봉계1길 52 (칠금동) 박봉안내과의원,043-847-7575,36.981067,127.9156242
